PMTK011,MTKGPS*08
$PMTK010,001*2E
$PMTK011,MTKGPS*08
$PMTK010,002*2D
$PMTK001,314,3*36
$GPGSA,A,1,,,,,,,,,,,,,,,*1E
$GLGSA,A,1,,,,,,,,,,,,,,,*02
$GNRMC,154850.063,V,,,,,0.33,0.00,251222,,,N*5F
$GPGSA,A,1,,,,,,,,,,,,,,,*1E
$GLGSA,A,1,,,,,,,,,,,,,,,*02
$GNRMC,154851.063,V,,,,,0.40,0.00,251222,,,N*5A
$GPGSA,A,3,25,24,19,32,12,06,11,,,,,,1.46,1.14,0.92*03
$GLGSA,A,3,,,,,,,,,,,,,1.46,1.14,0.92*12
$GNRMC,154852.060,A,4751.3463,N,03514.4446,E,1.20,325.67,251222,,,A*7F
$GPGSA,A,3,25,24,19,32,12,06,11,,,,,1.46,1.14,0.92*03
$GLGSA,A,3,,,,,,,,,,,,,1.46,1.14,0.92*12
$GNRMC,154853.059,A,4751.3474,N,03514.4438,E,1.23,321.14,251222,,,A*78
$GPGSA,A,3,25,24,19,32,12,06,11,,,,,,1.46,1.14,0.92*03
$GLGSA,A,3,,,,,,,,,,,,,1.46,1.14,0.92*12
$GNRMC,154854.060,A,4751.3476,N,03514.4421,E,1.58,321.85,251222,,,A*7B
$GPGSA,A,3,25,24,19,32,12,06,11,,,,,,1.46,1.14,0.92*03
$GLGSA,A,3,,,,,,,,,,,,,1.46,1.14,0.92*12
$GNRMC,154855.060,A,4751.3475,N,03514.4411,E,1.58,322.60,251222,,,A*72
$GPGSA,A,3,25,24,19,32,12,06,11,,,,,,1.46,1.14,0.92*03
$GLGSA,A,3,,,,,,,,,,,,,1.46,1.14,0.92*12
$GNRMC,154856.060,A,4751.3479,N,03514.4405,E,1.48,317.39,251222,,,A*73
$GPGSA,A,3,25,24,19,32,12,06,11,,,,,,1.46,1.14,0.92*03
$GLGSA,A,3,,,,,,,,,,,,,1.46,1.14,0.92*12
$GNRMC,154857.060,A,4751.3481,N,03514.4398,E,1.54,316.17,251222,,,A*76
$GPGSA,A,3,25,24,19,32,12,06,11,,,,,,1.46,1.14,0.91*00
$GLGSA,A,3,,,,,,,,,,,,,1.46,1.14,0.91*11
$GNRMC,154858.060,A,4751.3484,N,03514.4390,E,1.64,318.93,251222,,,A*75
$GPGSA,A,3,25,24,19,32,12,06,11,,,,,,1.46,1.14,0.91*00
$GLGSA,A,3,,,,,,,,,,,,,1.46,1.14,0.91*11
$GNRMC,154859.060,A,4751.3488,N,03514.4382,E,1.71,319.18,251222,,,A*7D
$GPGSA,A,3,25,24,19,32,12,06,11,,,,,,1.46,1.14,0.91*00
$GLGSA,A,3,,,,,,,,,,,,,1.46,1.14,0.91*11
$GNRMC,154900.060,A,4751.3492,N,03514.4376,E,1.73,318.22,251222,,,A*7A
$GPGSA,A,3,25,24,19,32,12,06,11,,,,,,1.46,1.14,0.91*00
$GLGSA,A,3,,,,,,,,,,,,,1.46,1.14,0.91*11
$GNRMC,154901.060,A,4751.3496,N,03514.4369,E,1.66,317.54,251222,,,A*7B
$GPGSA,A,3,25,24,19,32,12,06,11,,,,,,1.46,1.14,0.91*00
$GLGSA,A,3,,,,,,,,,,,,,1.46,1.14,0.91*11
$GNRMC,154902.065,A,4751.3496,N,03514.4377,E,1.59,317.32,251222,,,A*7E
$GPGSA,A,3,25,24,19,32,12,06,11,,,,,,1.46,1.14,0.91*00
$GLGSA,A,3,,,,,,,,,,,,,1.46,1.14,0.91*11
$GNRMC,154904.000,A,4751.3503,N,03514.4367,E,1.43,317.52,251222,,,A*7A
$GPGSA,A,3,25,24,19,32,12,06,11,,,,,,1.46,1.14,0.91*00
$GLGSA,A,3,,,,,,,,,,,,,1.46,1.14,0.91*11
$GNRMC,154905.000,A,4751.3507,N,03514.4363,E,1.34,319.71,251222,,,A*74
$GPGSA,A,3,25,24,19,32,12,06,11,,,,,,1.46,1.14,0.91*00
$GLGSA,A,3,,,,,,,,,,,,,1.46,1.14,0.91*11
$GNRMC,154906.000,A,4751.3512,N,03514.4360,E,1.30,324.46,251222,,,A*7E
$GPGSA,A,3,25,24,19,32,12,06,11,,,,,,1.46,1.14,0.91*00
$GLGSA,A,3,,,,,,,,,,,,,1.46,1.14,0.91*11
$GNRMC,154907.000,A,4751.3517,N,03514.4354,E,1.47,319.33,251222,,,A*71
$GPGSA,A,3,25,24,19,32,12,06,11,,,,,,1.46,1.14,0.91*00
$GLGSA,A,3,,,,,,,,,,,,,1.46,1.14,0.91*11
$GNRMC,154908.000,A,4751.3524,N,03514.4350,E,1.66,321.79,251222,,,A*7C
$GPGSA,A,3,25,24,19,32,12,06,11,,,,,,1.46,1.14,0.91*00
$GLGSA,A,3,,,,,,,,,,,,,1.46,1.14,0.91*11
$GNRMC,154909.000,A,4751.3528,N,03514.4346,E,1.63,321.72,251222,,,A*78
$GPGSA,A,3,25,24,19,32,12,06,11,,,,,,1.46,1.14,0.91*00
$GLGSA,A,3,,,,,,,,,,,,,1.46,1.14,0.91*11
$GNRMC,154910.000,A,4751.3533,N,03514.4340,E,1.77,317.20,251222,,,A*7B
$GPGSA,A,3,25,24,19,32,12,06,11,,,,,,1.46,1.14,0.91*00
$GLGSA,A,3,,,,,,,,,,,,,1.46,1.14,0.91*11
$GNRMC,154911.000,A,4751.3537,N,03514.4330,E,2.01,308.98,251222,,,A*76
$GPGSA,A,3,25,24,19,32,12,06,11,,,,,,1.46,1.14,0.91*00
$GLGSA,A,3,,,,,,,,,,,,,1.46,1.14,0.91*11
$GNRMC,154912.000,A,4751.3541,N,03514.4325,E,1.67,311.01,251222,,,A*7B
$GPGSA,A,3,25,24,19,32,12,06,11,,,,,,1.46,1.14,0.91*00
$GLGSA,A,3,,,,,,,,,,,,,1.46,1.14,0.91*11
$GNRMC,154913.000,A,4751.3546,N,03514.4321,E,1.53,314.83,251222,,,A*71
$GPGSA,A,3,25,24,19,32,12,06,11,,,,,,1.46,1.14,0.91*00
$GLGSA,A,3,,,,,,,,,,,,,1.46,1.14,0.91*11
$GNRMC,154914.000,A,4751.3551,N,03514.4315,E,1.77,313.62,251222,,,A*79
$GPGSA,A,3,25,24,19,32,12,06,11,,,,,,1.46,1.14,0.91*00
$GLGSA,A,3,,,,,,,,,,,,,1.46,1.14,0.91*11
$GNRMC,154915.000,A,4751.3554,N,03514.4309,E,1.87,311.92,251222,,,A*72
$GPGSA,A,3,25,24,19,32,12,06,11,,,,,,1.46,1.14,0.91*00
$GLGSA,A,3,,,,,,,,,,,,,1.46,1.14,0.91*11
$GNRMC,154916.000,A,4751.3559,N,03514.4302,E,1.95,310.51,251222,,,A*7A
$GPGSA,A,3,25,24,19,32,12,06,11,,,,,,1.46,1.14,0.91*00
$GLGSA,A,3,,,,,,,,,,,,,1.46,1.14,0.91*11
$GNRMC,154917.000,A,4751.3564,N,03514.4294,E,2.01,308.92,251222,,,A*73
$GPGSA,A,3,25,24,19,32,12,06,11,,,,,,1.46,1.14,0.91*00
$GLGSA,A,3,,,,,,,,,,,,,1.46,1.14,0.91*11
$GNRMC,154918.000,A,4751.3568,N,03514.4285,E,2.05,308.00,251222,,,A*7F
$GPGSA,A,3,25,24,19,32,12,06,11,,,,,,1.46,1.14,0.91*00
$GLGSA,A,3,,,,,,,,,,,,,1.46,1.14,0.91*11
$GNRMC,154919.000,A,4751.3572,N,03514.4277,E,2.04,306.96,251222,,,A*78
$GPGSA,A,3,25,24,19,32,12,06,11,,,,,,1.46,1.14,0.91*00
$GLGSA,A,3,,,,,,,,,,,,,1.46,1.14,0.91*11
$GNRMC,154920.000,A,4751.3575,N,03514.4269,E,1.91,303.35,251222,,,A*79
$GPGSA,A,3,25,24,19,32,12,06,11,,,,,,1.46,1.14,0.91*00
$GLGSA,A,3,,,,,,,,,,,,,1.46,1.14,0.91*11
$GNRMC,154921.000,A,4751.3579,N,03514.4262,E,1.63,304.29,251222,,,A*78
$GPGSA,A,3,25,24,19,32,12,06,11,,,,,,1.46,1.14,0.91*00
$GLGSA,A,3,,,,,,,,,,,,,1.46,1.14,0.91*11
$GNRMC,154922.000,A,4751.3581,N,03514.4251,E,1.62,300.81,251222,,,A*7B
$GPGSA,A,3,25,24,19,32,12,06,11,,,,,,1.46,1.14,0.91*00
$GLGSA,A,3,,,,,,,,,,,,,1.46,1.14,0.91*11
$GNRMC,154923.000,A,4751.3581,N,03514.4241,E,1.55,294.53,251222,,,A*7C
$GPGSA,A,3,25,24,19,32,12,06,11,,,,,,1.46,1.14,0.91*00
$GLGSA,A,3,,,,,,,,,,,,,1.46,1.14,0.91*11
$GNRMC,154924.000,A,4751.3580,N,03514.4229,E,1.50,297.39,251222,,,A*7E
$GPGSA,A,3,25,24,19,32,12,06,11,,,,,,1.46,1.14,0.91*00
$GLGSA,A,3,,,,,,,,,,,,,1.46,1.14,0.91*11
$GNRMC,154925.000,A,4751.3581,N,03514.4221,E,1.48,299.26,251222,,,A*7F
$GPGSA,A,3,25,24,19,32,12,06,11,,,,,,1.46,1.14,0.91*00
$GLGSA,A,3,,,,,,,,,,,,,1.46,1.14,0.91*11
$GNRMC,154926.000,A,4751.3581,N,03514.4216,E,1.21,296.84,251222,,,A*70
$GPGSA,A,3,25,24,19,32,12,06,11,,,,,,1.46,1.14,0.91*00
$GLGSA,A,3,,,,,,,,,,,,,1.46,1.14,0.91*11
$GNRMC,154927.000,A,4751.3582,N,03514.4209,E,1.14,293.02,251222,,,A*71
$GPGSA,A,3,25,24,19,32,12,06,11,,,,,,1.46,1.14,0.91*00
$GLGSA,A,3,,,,,,,,,,,,,1.46,1.14,0.91*11
$GNRMC,154928.000,A,4751.3584,N,03514.4202,E,1.17,289.32,251222,,,A*78
$GPGSA,A,3,25,24,19,32,12,06,11,,,,,,1.46,1.14,0.91*00
$GLGSA,A,3,,,,,,,,,,,,,1.46,1.14,0.91*11
$GNRMC,154929.000,A,4751.3585,N,03514.4195,E,1.00,282.88,251222,,,A*79
$GPGSA,A,3,25,24,19,32,12,06,11,,,,,,1.46,1.14,0.91*00
$GLGSA,A,3,,,,,,,,,,,,,1.46,1.14,0.91*11
$GNRMC,154930.000,A,4751.3583,N,03514.4185,E,1.01,272.26,251222,,,A*7C
$GPGSA,A,3,25,24,19,32,12,06,11,,,,,,1.46,1.14,0.91*00
$GLGSA,A,3,,,,,,,,,,,,,1.46,1.14,0.91*11
$GNRMC,154931.000,A,4751.3581,N,03514.4172,E,1.45,265.13,251222,,,A*77
$GPGSA,A,3,25,24,19,32,12,06,11,,,,,,1.46,1.14,0.91*00
$GLGSA,A,3,,,,,,,,,,,,,1.46,1.14,0.91*11
$GNRMC,154932.000,A,4751.3579,N,03514.4162,E,1.07,256.27,251222,,,A*73
$GPGSA,A,3,25,24,19,32,12,06,11,,,,,,1.46,1.14,0.91*00
$GLGSA,A,3,,,,,,,,,,,,,1.46,1.14,0.91*11
$GNRMC,154933.000,A,4751.3571,N,03514.4149,E,1.41,234.48,251222,,,A*7C
$GPGSA,A,3,25,24,19,32,12,06,11,,,,,,1.46,1.14,0.91*00
$GLGSA,A,3,,,,,,,,,,,,,1.46,1.14,0.91*11
$GNRMC,154934.000,A,4751.3565,N,03514.4140,E,1.57,223.33,251222,,,A*7A
$GPGSA,A,3,25,24,19,32,12,06,11,,,,,,1.46,1.14,0.91*00
$GLGSA,A,3,,,,,,,,,,,,,1.46,1.14,0.91*11
$GNRMC,154935.000,A,4751.3559,N,03514.4134,E,1.64,216.70,251222,,,A*76
$GPGSA,A,3,25,24,19,32,12,06,11,,,,,,1.46,1.14,0.91*00
$GLGSA,A,3,,,,,,,,,,,,,1.46,1.14,0.91*11
$GNRMC,154936.000,A,4751.3552,N,03514.4126,E,1.95,213.78,251222,,,A*7E
$GPGSA,A,3,25,24,19,32,12,06,11,,,,,,1.46,1.14,0.91*00
$GLGSA,A,3,,,,,,,,,,,,,1.46,1.14,0.91*11
$GNRMC,154937.000,A,4751.3547,N,03514.4122,E,1.96,208.28,251222,,,A*73
$GPGSA,A,3,25,24,19,32,12,06,11,,,,,,1.46,1.14,0.91*00
$GLGSA,A,3,,,,,,,,,,,,,1.46,1.14,0.91*11
$GNRMC,154938.000,A,4751.3543,N,03514.4119,E,1.99,208.17,251222,,,A*73
$GPGSA,A,3,25,24,19,32,12,06,11,,,,,,1.46,1.14,0.91*00
$GLGSA,A,3,,,,,,,,,,,,,1.46,1.14,0.91*11
$GNRMC,154939.000,A,4751.3538,N,03514.4114,E,2.17,208.79,251222,,,A*7E
$GPGSA,A,3,25,24,19,32,12,06,11,,,,,,1.36,1.01,0.91*03
$GLGSA,A,3,84,,,,,,,,,,,,1.36,1.01,0.91*1E
$GNRMC,154940.000,A,4751.3531,N,03514.4110,E,2.35,206.96,251222,,,A*72
$GPGSA,A,3,25,24,19,32,12,06,11,,,,,,1.36,1.01,0.91*03
$GLGSA,A,3,84,,,,,,,,,,,,1.36,1.01,0.91*1E
$GNRMC,154941.000,A,4751.3525,N,03514.4105,E,2.37,206.85,251222,,,A*72
$GPGSA,A,3,25,24,19,32,12,06,11,,,,,,1.36,1.01,0.91*03
$GLGSA,A,3,84,,,,,,,,,,,,1.36,1.01,0.91*1E
$GNRMC,154942.000,A,4751.3519,N,03514.4102,E,2.37,203.58,251222,,,A*7C
$GPGSA,A,3,25,24,19,32,12,06,11,,,,,,1.36,1.01,0.91*03
$GLGSA,A,3,84,,,,,,,,,,,,1.36,1.01,0.91*1E
$GNRMC,154943.000,A,4751.3514,N,03514.4103,E,2.08,203.76,251222,,,A*71
$GPGSA,A,3,25,24,19,32,12,06,11,,,,,,1.36,1.01,0.91*03
$GLGSA,A,3,84,,,,,,,,,,,,1.36,1.01,0.91*1E
$GNRMC,154944.000,A,4751.3509,N,03514.4102,E,1.87,204.60,251222,,,A*7F
$GPGSA,A,3,25,24,19,32,12,06,11,,,,,,1.36,1.01,0.91*03
$GLGSA,A,3,84,,,,,,,,,,,,1.36,1.01,0.91*1E
$GNRMC,154945.000,A,4751.3502,N,03514.4100,E,1.88,211.40,251222,,,A*7E
$GPGSA,A,3,25,24,19,32,12,06,11,,,,,,1.36,1.01,0.91*03
$GLGSA,A,3,84,,,,,,,,,,,,1.36,1.01,0.91*1E
$GNRMC,154946.000,A,4751.3496,N,03514.4096,E,1.94,207.51,251222,,,A*75
$GPGSA,A,3,25,24,19,32,12,06,11,,,,,,1.36,1.01,0.91*03
$GLGSA,A,3,84,,,,,,,,,,,,1.36,1.01,0.91*1E
$GNRMC,154947.000,A,4751.3485,N,03514.4084,E,2.35,209.37,251222,,,A*73
$GPGSA,A,3,25,24,19,32,12,06,11,,,,,,1.36,1.01,0.91*03
$GLGSA,A,3,84,,,,,,,,,,,,1.36,1.01,0.91*1E
$GNRMC,154948.000,A,4751.3476,N,03514.4076,E,2.42,204.83,251222,,,A*7F
$GPGSA,A,3,25,24,19,32,12,06,11,,,,,,1.36,1.01,0.91*03
$GLGSA,A,3,84,,,,,,,,,,,,1.36,1.01,0.91*1E
$GNRMC,154949.000,A,4751.3466,N,03514.4072,E,2.49,200.58,251222,,,A*72
$GPGSA,A,3,25,24,19,32,12,06,11,,,,,,1.36,1.01,0.91*03
$GLGSA,A,3,84,,,,,,,,,,,,1.36,1.01,0.91*1E
$GNRMC,154950.000,A,4751.3455,N,03514.4068,E,2.52,197.69,251222,,,A*74
$GPGSA,A,3,25,24,19,32,12,06,11,,,,,,1.36,1.01,0.91*03
$GLGSA,A,3,84,,,,,,,,,,,,1.36,1.01,0.91*1E
$GNRMC,154951.000,A,4751.3443,N,03514.4065,E,2.72,195.62,251222,,,A*74
$GPGSA,A,3,25,24,19,32,12,06,11,,,,,,1.36,1.01,0.91*03
$GLGSA,A,3,84,,,,,,,,,,,,1.36,1.01,0.91*1E
$GNRMC,154952.000,A,4751.3430,N,03514.4065,E,2.91,192.35,251222,,,A*7B
$GPGSA,A,3,25,24,19,32,12,06,11,,,,,,1.36,1.01,0.91*03
$GLGSA,A,3,84,,,,,,,,,,,,1.36,1.01,0.91*1E
$GNRMC,154953.000,A,4751.3421,N,03514.4063,E,2.33,206.23,251222,,,A*7D
$GPGSA,A,3,25,24,19,32,12,06,11,,,,,,1.36,1.01,0.91*03
$GLGSA,A,3,84,,,,,,,,,,,,1.36,1.01,0.91*1E
$GNRMC,154954.000,A,4751.3413,N,03514.4060,E,2.31,200.07,251222,,,A*7A
$GPGSA,A,3,25,24,19,32,12,06,11,,,,,,1.36,1.01,0.91*03
$GLGSA,A,3,84,,,,,,,,,,,,1.36,1.01,0.91*1E
$GNRMC,154955.000,A,4751.3405,N,03514.4058,E,2.29,194.25,251222,,,A*70
$GPGSA,A,3,25,24,19,32,12,06,11,,,,,,1.36,1.01,0.91*03
$GLGSA,A,3,84,,,,,,,,,,,,1.36,1.01,0.91*1E
$GNRMC,154956.000,A,4751.3396,N,03514.4056,E,2.07,198.39,251222,,,A*7D
$GPGSA,A,3,25,24,19,32,12,06,11,,,,,,1.36,1.01,0.91*03
$GLGSA,A,3,84,,,,,,,,,,,,1.36,1.01,0.91*1E
$GNRMC,154957.000,A,4751.3389,N,03514.4054,E,2.29,206.40,251222,,,A*76
$GPGSA,A,3,25,24,19,32,12,06,11,,,,,,1.36,1.01,0.91*03
$GLGSA,A,3,84,,,,,,,,,,,,1.36,1.01,0.91*1E
$GNRMC,154958.000,A,4751.3381,N,03514.4054,E,1.07,193.44,251222,,,A*75
$GPGSA,A,3,25,24,19,32,12,06,11,,,,,,1.36,1.01,0.91*03
$GLGSA,A,3,84,,,,,,,,,,,,1.36,1.01,0.91*1E
$GNRMC,154959.000,A,4751.3375,N,03514.4052,E,1.51,194.96,251222,,,A*72
$GPGSA,A,3,25,24,19,32,12,06,11,,,,,,1.36,1.01,0.91*03
$GLGSA,A,3,84,,,,,,,,,,,,1.36,1.01,0.91*1E
$GNRMC,155000.000,A,4751.3366,N,03514.4049,E,1.75,196.33,251222,,,A*75
$GPGSA,A,3,25,24,19,32,12,06,11,,,,,,1.36,1.01,0.91*03
$GLGSA,A,3,84,,,,,,,,,,,,1.36,1.01,0.91*1E
$GNRMC,155001.000,A,4751.3358,N,03514.4046,E,1.96,200.25,251222,,,A*70
$GPGSA,A,3,25,24,19,32,12,06,11,,,,,,1.36,1.01,0.91*03
$GLGSA,A,3,84,,,,,,,,,,,,1.36,1.01,0.91*1E
$GNRMC,155002.000,A,4751.3349,N,03514.4044,E,2.15,197.86,251222,,,A*7D
$GPGSA,A,3,25,24,19,32,12,06,11,,,,,,1.36,1.01,0.91*03
$GLGSA,A,3,84,,,,,,,,,,,,1.36,1.01,0.91*1E
$GNRMC,155003.000,A,4751.3344,N,03514.4039,E,2.14,202.33,251222,,,A*7B
$GPGSA,A,3,25,24,19,32,12,06,11,,,,,,1.36,1.01,0.91*03
$GLGSA,A,3,84,,,,,,,,,,,,1.36,1.01,0.91*1E
$GNRMC,155004.000,A,4751.3335,N,03514.4034,E,2.40,202.90,251222,,,A*7F
$GPGSA,A,3,25,24,19,32,12,06,11,,,,,,1.36,1.01,0.91*03
$GLGSA,A,3,84,,,,,,,,,,,,1.36,1.01,0.91*1E
$GNRMC,155005.000,A,4751.3326,N,03514.4032,E,2.42,196.71,251222,,,A*79
$GPGSA,A,3,25,24,19,32,12,06,11,,,,,,1.36,1.01,0.91*03
$GLGSA,A,3,84,,,,,,,,,,,,1.36,1.01,0.91*1E
$GNRMC,155006.000,A,4751.3318,N,03514.4029,E,2.47,197.33,251222,,,A*7F
$GPGSA,A,3,25,24,19,32,12,06,11,,,,,,1.36,1.01,0.91*03
$GLGSA,A,3,84,,,,,,,,,,,,1.36,1.01,0.91*1E
$GNRMC,155007.000,A,4751.3312,N,03514.4025,E,2.46,200.98,251222,,,A*75
$GPGSA,A,3,25,24,19,32,12,06,11,,,,,,1.36,1.01,0.91*03
$GLGSA,A,3,84,,,,,,,,,,,,1.36,1.01,0.91*1E
$GNRMC,155008.000,A,4751.3307,N,03514.4020,E,2.39,207.45,251222,,,A*74
$GPGSA,A,3,25,24,19,32,12,06,11,,,,,,1.36,1.01,0.91*03
$GLGSA,A,3,84,,,,,,,,,,,,1.36,1.01,0.91*1E
$GNRMC,155009.000,A,4751.3301,N,03514.4017,E,2.33,204.50,251222,,,A*7A
$GPGSA,A,3,25,24,19,32,12,06,11,,,,,,1.36,1.01,0.91*03
$GLGSA,A,3,84,,,,,,,,,,,,1.36,1.01,0.91*1E
$GNRMC,155010.000,A,4751.3295,N,03514.4013,E,2.31,206.56,251222,,,A*7C
$GPGSA,A,3,25,24,19,32,12,06,11,,,,,,1.36,1.01,0.91*03
$GLGSA,A,3,84,,,,,,,,,,,,1.36,1.01,0.91*1E
$GNRMC,155011.000,A,4751.3287,N,03514.4011,E,2.27,207.24,251222,,,A*7F
$GPGSA,A,3,25,24,19,32,12,06,11,,,,,,1.36,1.01,0.91*03
$GLGSA,A,3,84,,,,,,,,,,,,1.36,1.01,0.91*1E
$GNRMC,155012.000,A,4751.3280,N,03514.4008,E,2.23,207.67,251222,,,A*70
$GPGSA,A,3,25,24,19,32,12,06,11,,,,,,1.36,1.01,0.91*03
$GLGSA,A,3,84,,,,,,,,,,,,1.36,1.01,0.91*1E
$GNRMC,155013.000,A,4751.3274,N,03514.4005,E,2.21,209.57,251222,,,A*78
$GPGSA,A,3,25,24,19,32,12,06,11,,,,,,1.36,1.01,0.91*03
$GLGSA,A,3,84,,,,,,,,,,,,1.36,1.01,0.91*1E
$GNRMC,155014.000,A,4751.3270,N,03514.4001,E,2.01,213.92,251222,,,A*7F
$GPGSA,A,3,25,24,19,32,12,06,11,,,,,,1.36,1.01,0.91*03
$GLGSA,A,3,84,,,,,,,,,,,,1.36,1.01,0.91*1E
$GNRMC,155015.000,A,4751.3265,N,03514.3996,E,2.00,217.64,251222,,,A*76
$GPGSA,A,3,25,24,19,32,12,06,11,,,,,,1.36,1.01,0.91*03
$GLGSA,A,3,84,,,,,,,,,,,,1.36,1.01,0.91*1E
$GNRMC,155016.000,A,4751.3259,N,03514.3993,E,2.06,216.73,251222,,,A*7E
$GPGSA,A,3,25,24,19,32,12,06,11,,,,,,1.36,1.01,0.91*03
$GLGSA,A,3,84,,,,,,,,,,,,1.36,1.01,0.91*1E
$GNRMC,155017.000,A,4751.3253,N,03514.3989,E,2.10,218.11,251222,,,A*73
$GPGSA,A,3,25,24,19,32,12,06,11,,,,,,1.36,1.01,0.91*03
$GLGSA,A,3,84,,,,,,,,,,,,1.36,1.01,0.91*1E
$GNRMC,155018.000,A,4751.3249,N,03514.3985,E,2.10,224.08,251222,,,A*7C
$GPGSA,A,3,25,24,19,32,12,06,11,,,,,,1.36,1.01,0.91*03
$GLGSA,A,3,84,,,,,,,,,,,,1.36,1.01,0.91*1E
$GNRMC,155019.000,A,4751.3243,N,03514.3982,E,2.13,225.27,251222,,,A*7F
$GPGSA,A,3,25,24,19,32,12,06,11,,,,,,1.36,1.01,0.91*03
$GLGSA,A,3,84,,,,,,,,,,,,1.36,1.01,0.91*1E
$GNRMC,155020.000,A,4751.3235,N,03514.3980,E,2.19,224.55,251222,,,A*78
$GPGSA,A,3,25,24,19,32,12,06,11,,,,,,1.36,1.01,0.91*03
$GLGSA,A,3,84,,,,,,,,,,,,1.36,1.01,0.91*1E
$GNRMC,155021.000,A,4751.3227,N,03514.3978,E,2.35,221.69,251222,,,A*79
$GPGSA,A,3,25,24,19,32,12,06,11,,,,,,1.36,1.01,0.91*03
$GLGSA,A,3,84,,,,,,,,,,,,1.36,1.01,0.91*1E
$GNRMC,155022.000,A,4751.3219,N,03514.3978,E,2.34,220.20,251222,,,A*7A
$GPGSA,A,3,25,24,19,32,12,06,11,,,,,,1.36,1.01,0.91*03
$GLGSA,A,3,84,,,,,,,,,,,,1.36,1.01,0.91*1E
$GNRMC,155023.000,A,4751.3213,N,03514.3974,E,2.34,225.14,251222,,,A*7F
$GPGSA,A,3,25,24,19,32,12,06,11,,,,,,1.36,1.01,0.91*03
$GLGSA,A,3,84,,,,,,,,,,,,1.36,1.01,0.91*1E
$GNRMC,155024.000,A,4751.3207,N,03514.3970,E,2.33,233.50,251222,,,A*79
$GPGSA,A,3,25,24,19,32,12,06,11,,,,,,1.36,1.01,0.91*03
$GLGSA,A,3,84,,,,,,,,,,,,1.36,1.01,0.91*1E
$GNRMC,155025.000,A,4751.3204,N,03514.3963,E,2.31,242.80,251222,,,A*70
$GPGSA,A,3,25,24,19,32,12,06,11,,,,,,1.36,1.01,0.91*03
$GLGSA,A,3,84,,,,,,,,,,,,1.36,1.01,0.91*1E
$GNRMC,155026.000,A,4751.3201,N,03514.3955,E,2.27,246.16,251222,,,A*7F
$GPGSA,A,3,25,24,19,32,12,06,11,,,,,,1.36,1.01,0.91*03
$GLGSA,A,3,84,,,,,,,,,,,,1.36,1.01,0.91*1E
$GNRMC,155027.000,A,4751.3198,N,03514.3949,E,2.24,248.63,251222,,,A*7F
$GPGSA,A,3,25,24,19,32,12,06,11,,,,,,1.36,1.01,0.91*03
$GLGSA,A,3,84,,,,,,,,,,,,1.36,1.01,0.91*1E
$GNRMC,155028.000,A,4751.3197,N,03514.3941,E,2.24,257.16,251222,,,A*7B
$GPGSA,A,3,25,24,19,32,12,06,11,,,,,,1.36,1.01,0.91*03
$GLGSA,A,3,84,,,,,,,,,,,,1.36,1.01,0.91*1E
$GNRMC,155029.000,A,4751.3194,N,03514.3934,E,2.24,259.94,251222,,,A*7F
$GPGSA,A,3,25,24,19,32,12,06,11,,,,,,1.36,1.01,0.91*03
$GLGSA,A,3,84,,,,,,,,,,,,1.36,1.01,0.91*1E
$GNRMC,155030.000,A,4751.3192,N,03514.3924,E,2.08,258.21,251222,,,A*71
$GPGSA,A,3,25,24,19,32,12,06,11,,,,,,1.36,1.01,0.91*03
$GLGSA,A,3,84,,,,,,,,,,,,1.36,1.01,0.91*1E
$GNRMC,155031.000,A,4751.3190,N,03514.3914,E,2.30,261.55,251222,,,A*73
$GPGSA,A,3,25,24,19,32,12,06,11,,,,,,1.36,1.01,0.91*03
$GLGSA,A,3,84,,,,,,,,,,,,1.36,1.01,0.91*1E
$GNRMC,155032.000,A,4751.3189,N,03514.3905,E,2.54,265.13,251222,,,A*7C
$GPGSA,A,3,25,24,19,32,12,06,11,,,,,,1.36,1.01,0.91*03
$GLGSA,A,3,84,,,,,,,,,,,,1.36,1.01,0.91*1E
$GNRMC,155033.000,A,4751.3187,N,03514.3893,E,2.78,267.13,251222,,,A*71
$GPGSA,A,3,25,24,19,32,12,06,11,,,,,,1.36,1.01,0.91*03
$GLGSA,A,3,84,,,,,,,,,,,,1.36,1.01,0.91*1E
$GNRMC,155034.000,A,4751.3185,N,03514.3880,E,2.78,266.34,251222,,,A*72
$GPGSA,A,3,25,24,19,32,12,06,11,,,,,,1.36,1.01,0.91*03
$GLGSA,A,3,84,,,,,,,,,,,,1.36,1.01,0.91*1E
$GNRMC,155035.000,A,4751.3185,N,03514.3868,E,2.73,267.28,251222,,,A*72
$GPGSA,A,3,25,24,19,32,12,06,11,,,,,,1.36,1.01,0.91*03
$GLGSA,A,3,84,,,,,,,,,,,,1.36,1.01,0.91*1E
$GNRMC,155036.000,A,4751.3185,N,03514.3856,E,2.46,268.36,251222,,,A*7A
$GPGSA,A,3,25,24,19,32,12,06,11,,,,,,1.36,1.01,0.91*03
$GLGSA,A,3,84,,,,,,,,,,,,1.36,1.01,0.91*1E
$GNRMC,155037.000,A,4751.3185,N,03514.3844,E,2.41,269.61,251222,,,A*7C
$GPGSA,A,3,25,24,19,32,12,06,11,,,,,,1.36,1.01,0.91*03
$GLGSA,A,3,84,,,,,,,,,,,,1.36,1.01,0.91*1E
$GNRMC,155038.000,A,4751.3185,N,03514.3833,E,2.34,269.31,251222,,,A*74
$GPGSA,A,3,25,24,19,32,12,06,11,,,,,,1.36,1.01,0.91*03
$GLGSA,A,3,84,,,,,,,,,,,,1.36,1.01,0.91*1E
$GNRMC,155039.000,A,4751.3182,N,03514.3822,E,2.00,261.96,251222,,,A*70
$GPGSA,A,3,25,24,19,32,12,06,11,,,,,,1.36,1.01,0.91*03
$GLGSA,A,3,84,,,,,,,,,,,,1.36,1.01,0.91*1E
$GNRMC,155040.000,A,4751.3181,N,03514.3813,E,1.69,257.28,251222,,,A*73
$GPGSA,A,3,25,24,19,32,12,06,11,,,,,,1.36,1.01,0.91*03
$GLGSA,A,3,84,,,,,,,,,,,,1.36,1.01,0.91*1E
$GNRMC,155041.000,A,4751.3181,N,03514.3800,E,1.74,262.62,251222,,,A*74
$GPGSA,A,3,25,24,19,32,12,06,11,,,,,,1.36,1.01,0.91*03
$GLGSA,A,3,84,,,,,,,,,,,,1.36,1.01,0.91*1E
$GNRMC,155042.000,A,4751.3185,N,03514.3792,E,2.08,273.82,251222,,,A*71
$GPGSA,A,3,25,24,19,32,12,06,11,,,,,,1.36,1.01,0.91*03
$GLGSA,A,3,84,,,,,,,,,,,,1.36,1.01,0.91*1E
$GNRMC,155043.000,A,4751.3188,N,03514.3784,E,2.08,277.69,251222,,,A*7B
$GPGSA,A,3,25,24,19,32,12,06,11,,,,,,1.36,1.01,0.91*03
$GLGSA,A,3,84,,,,,,,,,,,,1.36,1.01,0.91*1E
$GNRMC,155044.000,A,4751.3191,N,03514.3775,E,2.40,281.35,251222,,,A*76
$GPGSA,A,3,25,24,19,32,12,06,11,,,,,,1.36,1.01,0.91*03
$GLGSA,A,3,84,,,,,,,,,,,,1.36,1.01,0.91*1E
$GNRMC,155045.000,A,4751.3193,N,03514.3763,E,2.48,282.66,251222,,,A*7F
$GPGSA,A,3,25,24,19,32,12,06,11,,,,,,1.36,1.01,0.91*03
$GLGSA,A,3,84,,,,,,,,,,,,1.36,1.01,0.91*1E
$GNRMC,155046.000,A,4751.3197,N,03514.3750,E,2.72,285.45,251222,,,A*77
$GPGSA,A,3,25,24,19,32,12,06,11,,,,,,1.36,1.01,0.91*03
$GLGSA,A,3,84,,,,,,,,,,,,1.36,1.01,0.91*1E
$GNRMC,155047.000,A,4751.3200,N,03514.3741,E,2.41,285.76,251222,,,A*7B
$GPGSA,A,3,25,24,19,32,12,06,11,,,,,,1.36,1.01,0.91*03
$GLGSA,A,3,84,,,,,,,,,,,,1.36,1.01,0.91*1E
$GNRMC,155048.000,A,4751.3203,N,03514.3731,E,2.23,287.63,251222,,,A*72
$GPGSA,A,3,25,24,19,32,12,06,11,,,,,,1.36,1.01,0.91*03
$GLGSA,A,3,84,,,,,,,,,,,,1.36,1.01,0.91*1E
$GNRMC,155049.000,A,4751.3205,N,03514.3723,E,2.18,290.05,251222,,,A*78
$GPGSA,A,3,25,24,19,32,12,06,11,,,,,,1.36,1.01,0.91*03
$GLGSA,A,3,84,,,,,,,,,,,,1.36,1.01,0.91*1E
$GNRMC,155050.000,A,4751.3207,N,03514.3714,E,2.14,291.83,251222,,,A*75
$GPGSA,A,3,25,24,19,32,12,06,11,,,,,,1.36,1.01,0.91*03
$GLGSA,A,3,84,,,,,,,,,,,,1.36,1.01,0.91*1E
$GNRMC,155051.000,A,4751.3209,N,03514.3706,E,2.13,292.15,251222,,,A*72
$GPGSA,A,3,25,24,19,32,12,06,11,,,,,,1.36,1.01,0.91*03
$GLGSA,A,3,84,,,,,,,,,,,,1.36,1.01,0.91*1E
$GNRMC,155052.000,A,4751.3211,N,03514.3698,E,2.33,292.63,251222,,,A*7D
$GPGSA,A,3,25,24,19,32,12,06,11,,,,,,1.36,1.01,0.91*03
$GLGSA,A,3,84,,,,,,,,,,,,1.36,1.01,0.91*1E
$GNRMC,155053.000,A,4751.3215,N,03514.3689,E,2.39,294.35,251222,,,A*77
$GPGSA,A,3,25,24,19,32,12,06,11,,,,,,1.36,1.01,0.91*03
$GLGSA,A,3,84,,,,,,,,,,,,1.36,1.01,0.91*1E
$GNRMC,155054.000,A,4751.3219,N,03514.3685,E,2.13,298.13,251222,,,A*70
$GPGSA,A,3,25,24,19,32,12,06,11,,,,,,1.36,1.01,0.91*03
$GLGSA,A,3,84,,,,,,,,,,,,1.36,1.01,0.91*1E
$GNRMC,155055.000,A,4751.3223,N,03514.3680,E,1.70,301.62,251222,,,A*7C
$GPGSA,A,3,25,24,19,32,12,06,11,,,,,,1.36,1.01,0.91*03
$GLGSA,A,3,84,,,,,,,,,,,,1.36,1.01,0.91*1E
$GNRMC,155056.000,A,4751.3231,N,03514.3672,E,1.92,307.33,251222,,,A*7F
$GPGSA,A,3,25,24,19,32,12,06,11,,,,,,1.36,1.01,0.91*03
$GLGSA,A,3,84,,,,,,,,,,,,1.36,1.01,0.91*1E
$GNRMC,155057.000,A,4751.3234,N,03514.3667,E,2.58,303.25,251222,,,A*79
$GPGSA,A,3,25,24,19,32,12,06,11,,,,,,1.36,1.01,0.91*03
$GLGSA,A,3,84,,,,,,,,,,,,1.36,1.01,0.91*1E
$GNRMC,155058.000,A,4751.3236,N,03514.3662,E,1.99,304.37,251222,,,A*7B
$GPGSA,A,3,25,24,19,32,12,06,11,,,,,,1.36,1.01,0.91*03
$GLGSA,A,3,84,,,,,,,,,,,,1.36,1.01,0.91*1E
$GNRMC,155059.000,A,4751.3237,N,03514.3651,E,1.83,303.92,251222,,,A*78
$GPGSA,A,3,25,24,19,32,12,06,11,,,,,,1.36,1.01,0.91*03
$GLGSA,A,3,84,,,,,,,,,,,,1.36,1.01,0.91*1E
$GNRMC,155100.000,A,4751.3240,N,03514.3643,E,1.79,304.12,251222,,,A*7C
$GPGSA,A,3,25,24,19,32,12,06,11,,,,,,1.36,1.01,0.91*03
$GLGSA,A,3,84,,,,,,,,,,,,1.36,1.01,0.91*1E
$GNRMC,155101.000,A,4751.3245,N,03514.3634,E,1.74,306.10,251222,,,A*75
$GPGSA,A,3,25,24,19,32,12,06,11,,,,,,1.36,1.01,0.91*03
$GLGSA,A,3,84,,,,,,,,,,,,1.36,1.01,0.91*1E
$GNRMC,155102.000,A,4751.3247,N,03514.3619,E,2.18,300.65,251222,,,A*76
$GPGSA,A,3,25,24,19,32,12,06,11,,,,,,1.36,1.01,0.91*03
$GLGSA,A,3,84,,,,,,,,,,,,1.36,1.01,0.91*1E
$GNRMC,155103.000,A,4751.3250,N,03514.3610,E,1.94,298.85,251222,,,A*71
$GPGSA,A,3,25,24,19,32,12,06,11,,,,,,1.36,1.01,0.91*03
$GLGSA,A,3,84,,,,,,,,,,,,1.36,1.01,0.91*1E
$GNRMC,155104.000,A,4751.3255,N,03514.3601,E,1.98,301.79,251222,,,A*7D
$GPGSA,A,3,25,24,19,32,12,06,11,,,,,,1.36,1.01,0.91*03
$GLGSA,A,3,84,,,,,,,,,,,,1.36,1.01,0.91*1E
$GNRMC,155105.000,A,4751.3260,N,03514.3594,E,2.01,301.00,251222,,,A*78
$GPGSA,A,3,25,24,19,32,12,06,11,,,,,,1.36,1.01,0.91*03
$GLGSA,A,3,84,,,,,,,,,,,,1.36,1.01,0.91*1E
$GNRMC,155106.000,A,4751.3263,N,03514.3584,E,2.24,300.10,251222,,,A*7E
$GPGSA,A,3,25,24,19,32,12,06,11,,,,,,1.36,1.01,0.91*03
$GLGSA,A,3,84,,,,,,,,,,,,1.36,1.01,0.91*1E
$GNRMC,155107.000,A,4751.3262,N,03514.3567,E,2.00,297.94,251222,,,A*76
$GPGSA,A,3,25,24,19,32,12,06,11,,,,,,1.36,1.01,0.91*03
$GLGSA,A,3,84,,,,,,,,,,,,1.36,1.01,0.91*1E
$GNRMC,155108.000,A,4751.3269,N,03514.3561,E,1.78,308.06,251222,,,A*74
$GPGSA,A,3,25,24,19,32,12,06,11,,,,,,1.36,1.01,0.91*03
$GLGSA,A,3,84,,,,,,,,,,,,1.36,1.01,0.91*1E
$GNRMC,155109.000,A,4751.3275,N,03514.3555,E,1.73,313.67,251222,,,A*79
$GPGSA,A,3,25,24,19,32,12,06,11,,,,,,1.27,0.93,0.86*0F
$GLGSA,A,3,65,84,75,,,,,,,,,,1.27,0.93,0.86*13
$GNRMC,155110.000,A,4751.3288,N,03514.3547,E,2.28,315.08,251222,,,A*72
$GPGSA,A,3,25,24,19,32,12,06,11,,,,,,1.27,0.93,0.86*0F
$GLGSA,A,3,65,84,75,,,,,,,,,,1.27,0.93,0.86*13
$GNRMC,155111.000,A,4751.3297,N,03514.3542,E,2.29,318.45,251222,,,A*7D
$GPGSA,A,3,25,24,19,32,12,06,11,,,,,,1.27,0.93,0.86*0F
$GLGSA,A,3,65,84,75,,,,,,,,,,1.27,0.93,0.86*13
$GNRMC,155112.000,A,4751.3305,N,03514.3536,E,2.28,318.07,251222,,,A*70
$GPGSA,A,3,25,24,19,32,12,06,11,,,,,,1.27,0.93,0.86*0F
$GLGSA,A,3,65,84,75,,,,,,,,,,1.27,0.93,0.86*13
$GNRMC,155113.000,A,4751.3315,N,03514.3531,E,2.53,322.20,251222,,,A*77
$GPGSA,A,3,25,24,19,32,12,06,11,,,,,,1.27,0.93,0.86*0F
$GLGSA,A,3,65,84,75,,,,,,,,,,1.27,0.93,0.86*13
$GNRMC,155114.000,A,4751.3320,N,03514.3521,E,2.29,323.08,251222,,,A*71
$GPGSA,A,3,25,24,19,32,12,06,11,,,,,,1.27,0.93,0.86*0F
$GLGSA,A,3,65,84,75,,,,,,,,,,1.27,0.93,0.86*13
$GNRMC,155115.000,A,4751.3327,N,03514.3514,E,2.24,323.95,251222,,,A*78
$GPGSA,A,3,25,24,19,32,12,06,11,,,,,,1.27,0.93,0.86*0F
$GLGSA,A,3,65,84,75,,,,,,,,,,1.27,0.93,0.86*13
$GNRMC,155116.000,A,4751.3332,N,03514.3507,E,2.40,323.14,251222,,,A*76
$GPGSA,A,3,25,24,19,32,12,06,11,,,,,,1.27,0.93,0.86*0F
$GLGSA,A,3,65,84,75,,,,,,,,,,1.27,0.93,0.86*13
$GNRMC,155117.000,A,4751.3337,N,03514.3497,E,2.58,316.26,251222,,,A*74
$GPGSA,A,3,25,24,19,32,12,06,11,,,,,,1.27,0.93,0.86*0F
$GLGSA,A,3,65,84,75,,,,,,,,,,1.27,0.93,0.86*13
$GNRMC,155118.000,A,4751.3342,N,03514.3485,E,2.51,312.48,251222,,,A*7F
$GPGSA,A,3,25,24,19,32,12,06,11,,,,,,1.27,0.93,0.86*0F
$GLGSA,A,3,65,84,75,,,,,,,,,,1.27,0.93,0.86*13
$GNRMC,155119.000,A,4751.3344,N,03514.3472,E,2.08,305.58,251222,,,A*7B
$GPGSA,A,3,25,24,19,32,12,06,11,,,,,,1.27,0.93,0.86*0F
$GLGSA,A,3,65,84,75,,,,,,,,,,1.27,0.93,0.86*13
$GNRMC,155120.000,A,4751.3348,N,03514.3462,E,1.88,303.92,251222,,,A*77
$GPGSA,A,3,25,24,19,32,12,06,11,,,,,,1.27,0.93,0.86*0F
$GLGSA,A,3,65,84,75,,,,,,,,,,1.27,0.93,0.86*13
$GNRMC,155121.000,A,4751.3341,N,03514.3446,E,2.45,269.75,251222,,,A*7F
$GPGSA,A,3,25,24,19,32,12,06,11,,,,,,1.27,0.93,0.86*0F
$GLGSA,A,3,65,84,75,,,,,,,,,,1.27,0.93,0.86*13
$GNRMC,155122.000,A,4751.3339,N,03514.3433,E,2.89,253.15,251222,,,A*7E
$GPGSA,A,3,25,24,19,32,12,06,11,,,,,,1.27,0.93,0.86*0F
$GLGSA,A,3,65,84,75,,,,,,,,,,1.27,0.93,0.86*13
$GNRMC,155123.000,A,4751.3340,N,03514.3421,E,2.51,267.83,251222,,,A*7F
$GPGSA,A,3,25,24,19,32,12,06,11,,,,,,1.27,0.93,0.86*0F
$GLGSA,A,3,65,84,75,,,,,,,,,,1.27,0.93,0.86*13
$GNRMC,155124.000,A,4751.3341,N,03514.3406,E,2.11,276.29,251222,,,A*78
$GPGSA,A,3,25,24,19,32,12,06,11,,,,,,1.27,0.93,0.86*0F
$GLGSA,A,3,65,84,75,,,,,,,,,,1.27,0.93,0.86*13
$GNRMC,155125.000,A,4751.3346,N,03514.3397,E,1.59,286.82,251222,,,A*70
$GPGSA,A,3,25,24,19,32,12,06,11,,,,,,1.27,0.93,0.86*0F
$GLGSA,A,3,65,84,75,,,,,,,,,,1.27,0.93,0.86*13
$GNRMC,155126.000,A,4751.3349,N,03514.3383,E,1.78,279.02,251222,,,A*72
$GPGSA,A,3,25,24,19,32,12,06,11,,,,,,1.27,0.93,0.86*0F
$GLGSA,A,3,65,84,75,,,,,,,,,,1.27,0.93,0.86*13
$GNRMC,155127.000,A,4751.3350,N,03514.3370,E,1.94,271.17,251222,,,A*79
$GPGSA,A,3,25,24,19,32,12,06,11,,,,,,1.27,0.93,0.86*0F
$GLGSA,A,3,65,84,75,,,,,,,,,,1.27,0.93,0.86*13
$GNRMC,155128.000,A,4751.3352,N,03514.3358,E,2.00,273.73,251222,,,A*70
$GPGSA,A,3,25,24,19,32,12,06,11,,,,,,1.27,0.93,0.86*0F
$GLGSA,A,3,65,84,75,,,,,,,,,,1.27,0.93,0.86*13
$GNRMC,155129.000,A,4751.3352,N,03514.3345,E,1.62,261.91,251222,,,A*75
$GPGSA,A,3,25,24,19,32,12,06,11,,,,,,1.27,0.93,0.86*0F
$GLGSA,A,3,65,84,75,,,,,,,,,,1.27,0.93,0.86*13
$GNRMC,155130.000,A,4751.3350,N,03514.3334,E,1.33,252.46,251222,,,A*77
$GPGSA,A,3,25,24,19,32,12,06,11,,,,,,1.27,0.93,0.86*0F
$GLGSA,A,3,65,84,75,,,,,,,,,,1.27,0.93,0.86*13
$GNRMC,155131.000,A,4751.3347,N,03514.3325,E,2.09,229.68,251222,,,A*7A
$GPGSA,A,3,25,24,19,32,12,06,11,,,,,,1.27,0.93,0.86*0F
$GLGSA,A,3,65,84,75,,,,,,,,,,1.27,0.93,0.86*13
$GNRMC,155132.000,A,4751.3343,N,03514.3316,E,2.13,229.70,251222,,,A*7F
$GPGSA,A,3,25,24,19,32,12,06,11,,,,,,1.27,0.93,0.86*0F
$GLGSA,A,3,65,84,75,,,,,,,,,,1.27,0.93,0.86*13
$GNRMC,155133.000,A,4751.3339,N,03514.3307,E,2.12,228.19,251222,,,A*7C
$GPGSA,A,3,25,24,19,32,12,06,11,,,,,,1.27,0.93,0.86*0F
$GLGSA,A,3,65,84,75,,,,,,,,,,1.27,0.93,0.86*13
$GNRMC,155134.000,A,4751.3335,N,03514.3297,E,2.13,228.28,251222,,,A*7C
$GPGSA,A,3,25,24,19,32,12,06,11,,,,,,1.27,0.93,0.86*0F
$GLGSA,A,3,65,84,75,,,,,,,,,,1.27,0.93,0.86*13
$GNRMC,155135.000,A,4751.3328,N,03514.3284,E,2.29,230.22,251222,,,A*79
$GPGSA,A,3,25,24,19,32,12,06,11,,,,,,1.27,0.93,0.86*0F
$GLGSA,A,3,65,84,75,,,,,,,,,,1.27,0.93,0.86*13
$GNRMC,155136.000,A,4751.3323,N,03514.3273,E,2.34,231.90,251222,,,A*7D
$GPGSA,A,3,25,24,19,32,12,06,11,,,,,,1.27,0.93,0.86*0F
$GLGSA,A,3,65,84,75,,,,,,,,,,1.27,0.93,0.86*13
$GNRMC,155137.000,A,4751.3320,N,03514.3264,E,2.34,235.14,251222,,,A*71
$GPGSA,A,3,25,24,19,32,12,06,11,,,,,,1.27,0.93,0.86*0F
$GLGSA,A,3,65,84,75,,,,,,,,,,1.27,0.93,0.86*13
$GNRMC,155138.000,A,4751.3315,N,03514.3256,E,2.31,227.82,251222,,,A*70
$GPGSA,A,3,25,24,19,32,12,06,11,,,,,,1.27,0.93,0.86*0F
$GLGSA,A,3,65,84,75,,,,,,,,,,1.27,0.93,0.86*13
$GNRMC,155139.000,A,4751.3310,N,03514.3251,E,2.24,218.64,251222,,,A*73
$GPGSA,A,3,25,24,19,32,12,06,11,,,,,,1.27,0.93,0.86*0F
$GLGSA,A,3,65,84,75,,,,,,,,,,1.27,0.93,0.86*13
$GNRMC,155140.000,A,4751.3307,N,03514.3243,E,2.19,219.27,251222,,,A*70
$GPGSA,A,3,25,24,19,32,12,06,11,,,,,,1.27,0.93,0.86*0F
$GLGSA,A,3,65,84,75,,,,,,,,,,1.27,0.93,0.86*13
$GNRMC,155141.000,A,4751.3302,N,03514.3237,E,2.14,214.52,251222,,,A*75
$GPGSA,A,3,25,24,19,32,12,06,11,,,,,,1.27,0.93,0.86*0F
$GLGSA,A,3,65,84,75,,,,,,,,,,1.27,0.93,0.86*13
$GNRMC,155142.000,A,4751.3301,N,03514.3231,E,1.82,213.53,251222,,,A*79
$GPGSA,A,3,25,24,19,32,12,06,11,,,,,,1.27,0.93,0.86*0F
$GLGSA,A,3,65,84,75,,,,,,,,,,1.27,0.93,0.86*13
$GNRMC,155143.000,A,4751.3298,N,03514.3221,E,1.82,222.63,251222,,,A*79
$GPGSA,A,3,25,24,19,32,12,06,11,,,,,,1.27,0.93,0.86*0F
$GLGSA,A,3,65,84,75,,,,,,,,,,1.27,0.93,0.86*13
$GNRMC,155144.000,A,4751.3297,N,03514.3212,E,1.83,228.95,251222,,,A*73
$GPGSA,A,3,25,24,19,32,12,06,11,,,,,,1.27,0.93,0.86*0F
$GLGSA,A,3,65,84,75,,,,,,,,,,1.27,0.93,0.86*13
$GNRMC,155145.000,A,4751.3294,N,03514.3202,E,1.86,234.57,251222,,,A*76
$GPGSA,A,3,25,24,19,32,12,06,11,,,,,,1.27,0.93,0.86*0F
$GLGSA,A,3,65,84,75,,,,,,,,,,1.27,0.93,0.86*13
$GNRMC,155146.000,A,4751.3292,N,03514.3195,E,1.88,237.13,251222,,,A*73
$GPGSA,A,3,25,24,19,32,12,06,11,,,,,,1.27,0.93,0.86*0F
$GLGSA,A,3,65,84,75,,,,,,,,,,1.27,0.93,0.86*13
$GNRMC,155147.000,A,4751.3290,N,03514.3186,E,1.82,238.81,251222,,,A*7C
$GPGSA,A,3,25,24,19,32,12,06,11,,,,,,1.27,0.93,0.86*0F
$GLGSA,A,3,65,84,75,,,,,,,,,,1.27,0.93,0.86*13
$GNRMC,155148.000,A,4751.3285,N,03514.3182,E,1.76,224.67,251222,,,A*7D
$GPGSA,A,3,25,24,19,32,12,06,11,,,,,,1.27,0.93,0.86*0F
$GLGSA,A,3,65,84,75,,,,,,,,,,1.27,0.93,0.86*13
$GNRMC,155149.000,A,4751.3278,N,03514.3177,E,1.74,209.77,251222,,,A*78
$GPGSA,A,3,25,24,19,32,12,06,11,,,,,,1.27,0.93,0.86*0F
$GLGSA,A,3,65,84,75,,,,,,,,,,1.27,0.93,0.86*13
$GNRMC,155150.000,A,4751.3269,N,03514.3169,E,1.82,211.76,251222,,,A*7E
$GPGSA,A,3,25,24,19,32,12,06,11,,,,,,1.27,0.93,0.86*0F
$GLGSA,A,3,65,84,75,,,,,,,,,,1.27,0.93,0.86*13
$GNRMC,155151.000,A,4751.3266,N,03514.3165,E,1.75,213.72,251222,,,A*72
$GPGSA,A,3,25,24,19,32,12,06,11,,,,,,1.27,0.93,0.86*0F
$GLGSA,A,3,65,84,75,,,,,,,,,,1.27,0.93,0.86*13
$GNRMC,155152.000,A,4751.3262,N,03514.3162,E,1.72,215.67,251222,,,A*77
$GPGSA,A,3,25,24,19,32,12,06,11,,,,,,1.27,0.93,0.86*0F
$GLGSA,A,3,65,84,75,,,,,,,,,,1.27,0.93,0.86*13
$GNRMC,155153.000,A,4751.3256,N,03514.3155,E,1.76,221.38,251222,,,A*7C
$GPGSA,A,3,25,24,19,32,12,06,11,,,,,,1.27,0.93,0.86*0F
$GLGSA,A,3,65,84,75,,,,,,,,,,1.27,0.93,0.86*13
$GNRMC,155154.000,A,4751.3250,N,03514.3145,E,1.89,229.63,251222,,,A*7A
$GPGSA,A,3,25,24,19,32,12,06,11,,,,,,1.27,0.93,0.86*0F
$GLGSA,A,3,65,84,75,,,,,,,,,,1.27,0.93,0.86*13
$GNRMC,155155.000,A,4751.3245,N,03514.3138,E,1.93,233.18,251222,,,A*79
$GPGSA,A,3,25,24,19,32,12,06,11,,,,,,1.27,0.93,0.86*0F
$GLGSA,A,3,65,84,75,,,,,,,,,,1.27,0.93,0.86*13
$GNRMC,155156.000,A,4751.3234,N,03514.3127,E,1.97,231.25,251222,,,A*7A
$GPGSA,A,3,25,24,19,32,12,06,11,,,,,,1.27,0.93,0.86*0F
$GLGSA,A,3,65,84,75,,,,,,,,,,1.27,0.93,0.86*13
$GNRMC,155157.000,A,4751.3226,N,03514.3114,E,2.14,231.82,251222,,,A*7D
$GPGSA,A,3,25,24,19,32,12,06,11,,,,,,1.27,0.93,0.86*0F
$GLGSA,A,3,65,84,75,,,,,,,,,,1.27,0.93,0.86*13
$GNRMC,155158.000,A,4751.3220,N,03514.3106,E,2.13,231.07,251222,,,A*7D
$GPGSA,A,3,25,24,19,32,12,06,11,,,,,,1.27,0.93,0.86*0F
$GLGSA,A,3,65,84,75,,,,,,,,,,1.27,0.93,0.86*13
$GNRMC,155159.000,A,4751.3216,N,03514.3101,E,1.96,229.36,251222,,,A*7B
$GPGSA,A,3,25,24,19,32,12,06,11,,,,,,1.27,0.93,0.86*0F
$GLGSA,A,3,65,84,75,,,,,,,,,,1.27,0.93,0.86*13
$GNRMC,155200.000,A,4751.3212,N,03514.3096,E,1.90,225.37,251222,,,A*74
$GPGSA,A,3,25,24,19,32,12,29,06,11,,,,,1.17,0.82,0.83*02
$GLGSA,A,3,65,84,75,,,,,,,,,,1.17,0.82,0.83*15
$GNRMC,155201.000,A,4751.3209,N,03514.3093,E,1.68,219.75,251222,,,A*74
$GPGSA,A,3,25,24,19,32,12,29,06,11,,,,,1.17,0.82,0.83*02
$GLGSA,A,3,65,84,75,,,,,,,,,,1.17,0.82,0.83*15
$GNRMC,155202.000,A,4751.3204,N,03514.3088,E,1.72,225.09,251222,,,A*7F
$GPGSA,A,3,25,24,19,32,12,29,06,11,,,,,1.17,0.82,0.83*02
$GLGSA,A,3,65,84,75,,,,,,,,,,1.17,0.82,0.83*15
$GNRMC,155203.000,A,4751.3200,N,03514.3083,E,1.78,222.78,251222,,,A*7A
$GPGSA,A,3,25,24,19,32,12,29,06,11,,,,,1.17,0.82,0.83*02
$GLGSA,A,3,65,84,75,,,,,,,,,,1.17,0.82,0.83*15
$GNRMC,155204.000,A,4751.3193,N,03514.3074,E,2.09,222.79,251222,,,A*78
$GPGSA,A,3,25,24,19,32,12,29,06,11,,,,,1.17,0.82,0.83*02
$GLGSA,A,3,65,84,75,,,,,,,,,,1.17,0.82,0.83*15
$GNRMC,155205.000,A,4751.3188,N,03514.3062,E,2.09,230.11,251222,,,A*79
$GPGSA,A,3,25,24,19,32,12,29,06,11,,,,,1.17,0.82,0.83*02
$GLGSA,A,3,65,84,75,,,,,,,,,,1.17,0.82,0.83*15
$GNRMC,155206.000,A,4751.3184,N,03514.3056,E,2.12,229.65,251222,,,A*70
$GPGSA,A,3,25,24,19,32,12,29,06,11,,,,,1.17,0.82,0.83*02
$GLGSA,A,3,65,84,75,,,,,,,,,,1.17,0.82,0.83*15
$GNRMC,155207.000,A,4751.3179,N,03514.3047,E,2.19,230.38,251222,,,A*78
$GPGSA,A,3,25,24,19,32,12,29,06,11,,,,,1.17,0.82,0.83*02
$GLGSA,A,3,65,84,75,,,,,,,,,,1.17,0.82,0.83*15
$GNRMC,155208.000,A,4751.3175,N,03514.3033,E,2.19,230.28,251222,,,A*79
$GPGSA,A,3,25,24,19,32,12,29,06,11,,,,,1.17,0.82,0.83*02
$GLGSA,A,3,65,84,75,,,,,,,,,,1.17,0.82,0.83*15
$GNRMC,155209.000,A,4751.3173,N,03514.3018,E,2.02,238.68,251222,,,A*71
$GPGSA,A,3,25,24,19,32,12,29,06,11,,,,,1.17,0.82,0.83*02
$GLGSA,A,3,65,84,75,,,,,,,,,,1.17,0.82,0.83*15
$GNRMC,155210.000,A,4751.3170,N,03514.3003,E,1.99,241.56,251222,,,A*72
$GPGSA,A,3,25,24,19,32,12,29,06,11,,,,,1.17,0.82,0.83*02
$GLGSA,A,3,65,84,75,,,,,,,,,,1.17,0.82,0.83*15
$GNRMC,155211.000,A,4751.3168,N,03514.2995,E,1.63,245.34,251222,,,A*78
$GPGSA,A,3,25,24,19,32,12,29,06,11,,,,,1.17,0.82,0.83*02
$GLGSA,A,3,65,84,75,,,,,,,,,,1.17,0.82,0.83*15
$GNRMC,155212.000,A,4751.3164,N,03514.2992,E,1.56,234.09,251222,,,A*7E
$GPGSA,A,3,25,24,19,32,12,29,06,11,,,,,1.17,0.82,0.83*02
$GLGSA,A,3,65,84,75,,,,,,,,,,1.17,0.82,0.83*15
$GNRMC,155213.000,A,4751.3160,N,03514.2985,E,1.61,232.20,251222,,,A*74
$GPGSA,A,3,25,24,19,32,12,29,11,,,,,,1.21,0.89,0.83*0A
$GLGSA,A,3,65,84,75,,,,,,,,,,1.21,0.89,0.83*1B
$GNRMC,155214.000,A,4751.3157,N,03514.2979,E,1.66,230.99,251222,,,A*73
$GPGSA,A,3,25,24,19,32,12,29,06,11,,,,,1.17,0.82,0.83*02
$GLGSA,A,3,65,84,75,,,,,,,,,,1.17,0.82,0.83*15
$GNRMC,155215.000,A,4751.3150,N,03514.2974,E,1.94,220.62,251222,,,A*70
$GPGSA,A,3,25,24,19,32,12,29,06,11,,,,,1.17,0.82,0.83*02
$GLGSA,A,3,65,84,75,,,,,,,,,,1.17,0.82,0.83*15
$GNRMC,155216.000,A,4751.3147,N,03514.2968,E,2.05,221.02,251222,,,A*74
$GPGSA,A,3,25,24,19,32,12,29,06,11,,,,,1.17,0.82,0.83*02
$GLGSA,A,3,65,84,75,,,,,,,,,,1.17,0.82,0.83*15
$GNRMC,155217.000,A,4751.3143,N,03514.2960,E,2.08,221.84,251222,,,A*7A
$GPGSA,A,3,25,24,19,32,12,29,06,11,,,,,1.17,0.82,0.83*02
$GLGSA,A,3,65,84,75,,,,,,,,,,1.17,0.82,0.83*15
$GNRMC,155218.000,A,4751.3137,N,03514.2955,E,2.11,222.44,251222,,,A*77
$GPGSA,A,3,25,24,19,32,12,29,06,11,,,,,1.17,0.82,0.83*02
$GLGSA,A,3,65,84,75,,,,,,,,,,1.17,0.82,0.83*15
$GNRMC,155219.000,A,4751.3132,N,03514.2946,E,2.33,224.75,251222,,,A*75
$GPGSA,A,3,25,24,19,32,12,29,11,,,,,,1.21,0.89,0.83*0A
$GLGSA,A,3,65,84,75,,,,,,,,,,1.21,0.89,0.83*1B
$GNRMC,155220.000,A,4751.3127,N,03514.2943,E,1.88,219.59,251222,,,A*7D
$GPGSA,A,3,25,24,19,32,12,29,06,11,,,,,1.17,0.82,0.83*02
$GLGSA,A,3,65,84,75,,,,,,,,,,1.17,0.82,0.83*15
$GNRMC,155221.000,A,4751.3123,N,03514.2939,E,1.47,216.09,251222,,,A*7C
$GPGSA,A,3,25,24,19,32,12,29,06,11,,,,,1.17,0.82,0.83*02
$GLGSA,A,3,65,84,75,,,,,,,,,,1.17,0.82,0.83*15
$GNRMC,155222.000,A,4751.3122,N,03514.2931,E,1.10,217.31,251222,,,A*7E
$GPGSA,A,3,25,24,19,32,12,29,06,11,,,,,1.17,0.82,0.83*02
$GLGSA,A,3,65,84,75,,,,,,,,,,1.17,0.82,0.83*15
$GNRMC,155223.000,A,4751.3122,N,03514.2925,E,0.88,233.92,251222,,,A*75
$GPGSA,A,3,25,24,19,32,12,29,06,11,,,,,1.17,0.82,0.83*02
$GLGSA,A,3,65,84,75,,,,,,,,,,1.17,0.82,0.83*15
$GNRMC,155224.000,A,4751.3126,N,03514.2913,E,1.08,272.77,251222,,,A*74
$GPGSA,A,3,25,24,19,32,12,29,06,11,,,,,1.17,0.82,0.83*02
$GLGSA,A,3,65,84,75,,,,,,,,,,1.17,0.82,0.83*15
$GNRMC,155225.000,A,4751.3130,N,03514.2900,E,1.60,297.61,251222,,,A*72
$GPGSA,A,3,25,24,19,32,12,29,06,11,,,,,1.17,0.82,0.83*02
$GLGSA,A,3,65,84,75,,,,,,,,,,1.17,0.82,0.83*15
$GNRMC,155226.000,A,4751.3132,N,03514.2883,E,1.83,297.19,251222,,,A*7B
$GPGSA,A,3,25,24,19,32,12,29,06,11,,,,,1.17,0.82,0.83*02
$GLGSA,A,3,65,84,75,,,,,,,,,,1.17,0.82,0.83*15
$GNRMC,155227.000,A,4751.3133,N,03514.2873,E,2.04,289.73,251222,,,A*7B
$GPGSA,A,3,25,24,19,32,12,29,06,11,,,,,1.17,0.82,0.83*02
$GLGSA,A,3,65,84,75,,,,,,,,,,1.17,0.82,0.83*15
$GNRMC,155228.000,A,4751.3135,N,03514.2859,E,2.25,281.51,251222,,,A*71
$GPGSA,A,3,25,24,19,32,12,29,06,11,,,,,1.17,0.82,0.83*02
$GLGSA,A,3,65,84,75,,,,,,,,,,1.17,0.82,0.83*15
$GNRMC,155229.000,A,4751.3135,N,03514.2848,E,2.28,276.92,251222,,,A*7A
$GPGSA,A,3,25,24,19,32,12,29,06,11,,,,,1.17,0.82,0.83*02
$GLGSA,A,3,65,84,75,,,,,,,,,,1.17,0.82,0.83*15
$GNRMC,155230.000,A,4751.3133,N,03514.2838,E,1.95,264.69,251222,,,A*71
$GPGSA,A,3,25,24,19,32,12,29,06,11,,,,,1.17,0.82,0.83*02
$GLGSA,A,3,65,84,75,,,,,,,,,,1.17,0.82,0.83*15
$GNRMC,155231.000,A,4751.3129,N,03514.2826,E,1.92,247.51,251222,,,A*79
$GPGSA,A,3,25,24,19,32,12,29,06,11,,,,,1.17,0.82,0.83*02
$GLGSA,A,3,65,84,75,,,,,,,,,,1.17,0.82,0.83*15
$GNRMC,155232.000,A,4751.3126,N,03514.2819,E,1.89,238.52,251222,,,A*78
$GPGSA,A,3,25,24,19,32,12,29,06,11,,,,,1.17,0.82,0.83*02
$GLGSA,A,3,65,84,75,,,,,,,,,,1.17,0.82,0.83*15
$GNRMC,155233.000,A,4751.3123,N,03514.2807,E,1.85,245.69,251222,,,A*7D
$GPGSA,A,3,25,24,19,32,12,29,06,11,,,,,1.17,0.82,0.83*02
$GLGSA,A,3,65,84,75,,,,,,,,,,1.17,0.82,0.83*15
$GNRMC,155234.000,A,4751.3117,N,03514.2797,E,1.62,241.80,251222,,,A*71
$GPGSA,A,3,25,24,19,32,12,29,06,11,,,,,1.17,0.82,0.83*02
$GLGSA,A,3,65,84,75,,,,,,,,,,1.17,0.82,0.83*15
$GNRMC,155235.000,A,4751.3114,N,03514.2783,E,1.63,239.17,251222,,,A*76
$GPGSA,A,3,25,24,19,32,12,29,06,11,,,,,1.17,0.82,0.83*02
$GLGSA,A,3,65,84,75,,,,,,,,,,1.17,0.82,0.83*15
$GNRMC,155236.000,A,4751.3110,N,03514.2773,E,1.61,236.77,251222,,,A*75
$GPGSA,A,3,25,24,19,32,12,29,06,11,,,,,1.17,0.82,0.83*02
$GLGSA,A,3,65,84,75,,,,,,,,,,1.17,0.82,0.83*15
$GNRMC,155237.000,A,4751.3105,N,03514.2764,E,1.62,235.13,251222,,,A*74
$GPGSA,A,3,25,24,19,32,12,29,06,11,,,,,1.17,0.82,0.83*02
$GLGSA,A,3,65,84,75,,,,,,,,,,1.17,0.82,0.83*15
$GNRMC,155238.000,A,4751.3100,N,03514.2754,E,1.66,237.21,251222,,,A*7A
$GPGSA,A,3,25,24,19,32,12,29,06,11,,,,,1.17,0.82,0.83*02
$GLGSA,A,3,65,84,75,,,,,,,,,,1.17,0.82,0.83*15
$GNRMC,155239.000,A,4751.3094,N,03514.2738,E,1.83,235.55,251222,,,A*77
$GPGSA,A,3,25,24,19,32,12,29,06,11,,,,,1.17,0.82,0.83*02
$GLGSA,A,3,65,84,75,,,,,,,,,,1.17,0.82,0.83*15
$GNRMC,155240.000,A,4751.3090,N,03514.2728,E,1.12,238.54,251222,,,A*78
$GPGSA,A,3,25,24,19,32,12,29,06,11,,,,,1.17,0.82,0.83*02
$GLGSA,A,3,65,84,75,,,,,,,,,,1.17,0.82,0.83*15
$GNRMC,155241.000,A,4751.3084,N,03514.2715,E,1.35,229.80,251222,,,A*7E
$GPGSA,A,3,25,24,19,32,12,29,06,11,,,,,1.17,0.82,0.83*02
$GLGSA,A,3,65,84,75,,,,,,,,,,1.17,0.82,0.83*15
$GNRMC,155242.000,A,4751.3076,N,03514.2695,E,1.72,231.16,251222,,,A*7C
$GPGSA,A,3,25,24,19,32,12,29,06,11,,,,,1.17,0.82,0.83*02
$GLGSA,A,3,65,84,75,,,,,,,,,,1.17,0.82,0.83*15
$GNRMC,155243.000,A,4751.3068,N,03514.2680,E,2.04,228.66,251222,,,A*7B
$GPGSA,A,3,25,24,19,32,12,29,06,11,,,,,1.17,0.82,0.83*02
$GLGSA,A,3,65,84,75,,,,,,,,,,1.17,0.82,0.83*15
$GNRMC,155244.000,A,4751.3060,N,03514.2668,E,1.62,228.44,251222,,,A*71
$GPGSA,A,3,25,24,19,32,12,29,06,11,,,,,1.17,0.82,0.83*02
$GLGSA,A,3,65,84,75,,,,,,,,,,1.17,0.82,0.83*15
$GNRMC,155245.000,A,4751.3052,N,03514.2658,E,1.97,220.58,251222,,,A*7D
$GPGSA,A,3,25,24,19,32,12,29,06,11,,,,,1.17,0.82,0.83*02
$GLGSA,A,3,65,84,75,,,,,,,,,,1.17,0.82,0.83*15
$GNRMC,155246.000,A,4751.3044,N,03514.2649,E,2.20,221.32,251222,,,A*7B
$GPGSA,A,3,25,24,19,32,12,29,06,11,,,,,1.17,0.82,0.83*02
$GLGSA,A,3,65,84,75,,,,,,,,,,1.17,0.82,0.83*15
$GNRMC,155247.000,A,4751.3036,N,03514.2636,E,2.44,221.73,251222,,,A*70
$GPGSA,A,3,25,24,19,32,12,29,06,11,,,,,1.17,0.82,0.83*02
$GLGSA,A,3,65,84,75,,,,,,,,,,1.17,0.82,0.83*15
$GNRMC,155248.000,A,4751.3026,N,03514.2627,E,2.46,216.91,251222,,,A*74
$GPGSA,A,3,25,24,19,32,12,29,06,11,,,,,1.17,0.82,0.83*02
$GLGSA,A,3,65,84,75,,,,,,,,,,1.17,0.82,0.83*15
$GNRMC,155249.000,A,4751.3016,N,03514.2622,E,2.54,208.82,251222,,,A*7D
$GPGSA,A,3,25,24,19,32,12,29,06,11,,,,,1.17,0.82,0.83*02
$GLGSA,A,3,65,84,75,,,,,,,,,,1.17,0.82,0.83*15
$GNRMC,155250.000,A,4751.3007,N,03514.2616,E,2.34,203.48,251222,,,A*79
$GPGSA,A,3,25,24,19,32,12,29,06,11,,,,,1.17,0.82,0.83*02
$GLGSA,A,3,65,84,75,,,,,,,,,,1.17,0.82,0.83*15
$GNRMC,155251.000,A,4751.3000,N,03514.2615,E,2.27,199.25,251222,,,A*75
$GPGSA,A,3,25,24,19,32,12,29,06,11,,,,,1.17,0.82,0.83*02
$GLGSA,A,3,65,84,75,,,,,,,,,,1.17,0.82,0.83*15
$GNRMC,155252.000,A,4751.2994,N,03514.2612,E,1.83,203.62,251222,,,A*7A
$GPGSA,A,3,25,24,19,32,12,29,06,11,,,,,1.17,0.82,0.83*02
$GLGSA,A,3,65,84,75,,,,,,,,,,1.17,0.82,0.83*15
$GNRMC,155253.000,A,4751.2988,N,03514.2610,E,1.84,201.56,251222,,,A*76
$GPGSA,A,3,25,24,19,32,12,29,06,11,,,,,1.17,0.82,0.83*02
$GLGSA,A,3,65,84,75,,,,,,,,,,1.17,0.82,0.83*15
$GNRMC,155254.000,A,4751.2983,N,03514.2607,E,1.81,200.61,251222,,,A*7C
$GPGSA,A,3,25,24,19,32,12,29,06,11,,,,,1.17,0.82,0.83*02
$GLGSA,A,3,65,84,75,,,,,,,,,,1.17,0.82,0.83*15
$GNRMC,155255.000,A,4751.2979,N,03514.2605,E,1.60,223.78,251222,,,A*7C
$GPGSA,A,3,25,24,19,32,12,29,06,11,,,,,1.17,0.82,0.83*02
$GLGSA,A,3,65,84,75,,,,,,,,,,1.17,0.82,0.83*15
$GNRMC,155256.000,A,4751.2976,N,03514.2600,E,1.29,232.49,251222,,,A*7A
$GPGSA,A,3,25,24,19,32,12,29,06,11,,,,,1.17,0.82,0.83*02
$GLGSA,A,3,65,84,75,,,,,,,,,,1.17,0.82,0.83*15
$GNRMC,155257.000,A,4751.2971,N,03514.2589,E,1.56,237.88,251222,,,A*7E
$GPGSA,A,3,25,24,19,32,12,29,06,11,,,,,1.17,0.82,0.83*02
$GLGSA,A,3,65,84,75,,,,,,,,,,1.17,0.82,0.83*15
$GNRMC,155258.000,A,4751.2966,N,03514.2578,E,1.70,234.84,251222,,,A*72
$GPGSA,A,3,25,24,19,32,12,29,06,11,,,,,1.17,0.82,0.83*02
$GLGSA,A,3,65,84,75,,,,,,,,,,1.17,0.82,0.83*15
$GNRMC,155259.000,A,4751.2961,N,03514.2572,E,1.60,230.63,251222,,,A*72
$GPGSA,A,3,25,24,19,32,12,29,06,11,,,,,1.17,0.82,0.83*02
$GLGSA,A,3,65,84,75,,,,,,,,,,1.17,0.82,0.83*15
$GNRMC,155300.000,A,4751.2953,N,03514.2561,E,1.81,224.75,251222,,,A*71
$GPGSA,A,3,25,24,19,32,12,29,06,11,,,,,1.17,0.82,0.83*02
$GLGSA,A,3,65,84,75,,,,,,,,,,1.17,0.82,0.83*15
$GNRMC,155301.000,A,4751.2947,N,03514.2553,E,0.95,205.42,251222,,,A*77
$GPGSA,A,3,25,24,19,32,12,29,06,11,,,,,1.17,0.82,0.83*02
$GLGSA,A,3,65,84,75,,,,,,,,,,1.17,0.82,0.83*15
$GNRMC,155302.000,A,4751.2939,N,03514.2540,E,1.84,215.14,251222,,,A*7C
$GPGSA,A,3,25,24,19,32,12,29,06,11,,,,,1.17,0.82,0.83*02
$GLGSA,A,3,65,84,75,,,,,,,,,,1.17,0.82,0.83*15
$GNRMC,155303.000,A,4751.2933,N,03514.2537,E,1.71,207.37,251222,,,A*7F
$GPGSA,A,3,25,24,19,32,12,29,06,11,,,,,1.17,0.82,0.83*02
$GLGSA,A,3,65,84,75,,,,,,,,,,1.17,0.82,0.83*15
$GNRMC,155304.000,A,4751.2927,N,03514.2534,E,1.73,209.19,251222,,,A*7E
$GPGSA,A,3,25,24,19,32,12,29,06,11,,,,,1.17,0.82,0.83*02
$GLGSA,A,3,65,84,75,,,,,,,,,,1.17,0.82,0.83*15
$GNRMC,155305.000,A,4751.2921,N,03514.2531,E,2.12,206.96,251222,,,A*70
$GPGSA,A,3,25,24,19,32,12,29,06,11,,,,,1.17,0.82,0.83*02
$GLGSA,A,3,65,84,75,,,,,,,,,,1.17,0.82,0.83*15
$GNRMC,155306.000,A,4751.2914,N,03514.2529,E,2.18,205.88,251222,,,A*7A
$GPGSA,A,3,25,24,19,32,12,29,06,11,,,,,1.17,0.82,0.83*02
$GLGSA,A,3,65,84,75,,,,,,,,,,1.17,0.82,0.83*15
$GNRMC,155307.000,A,4751.2906,N,03514.2526,E,2.39,202.95,251222,,,A*7F
$GPGSA,A,3,25,24,19,32,12,29,06,11,,,,,1.17,0.82,0.83*02
$GLGSA,A,3,65,84,75,,,,,,,,,,1.17,0.82,0.83*15
$GNRMC,155308.000,A,4751.2899,N,03514.2523,E,2.33,204.63,251222,,,A*77
$GPGSA,A,3,25,24,19,32,12,29,06,11,,,,,1.17,0.82,0.83*02
$GLGSA,A,3,65,84,75,,,,,,,,,,1.17,0.82,0.83*15
$GNRMC,155309.000,A,4751.2893,N,03514.2519,E,2.17,206.67,251222,,,A*75
$GPGSA,A,3,25,24,19,32,12,29,06,11,,,,,1.17,0.82,0.83*02
$GLGSA,A,3,65,84,75,,,,,,,,,,1.17,0.82,0.83*15
$GNRMC,155310.000,A,4751.2887,N,03514.2512,E,2.18,210.73,251222,,,A*7E
$GPGSA,A,3,25,24,19,32,12,29,06,11,,,,,1.17,0.82,0.83*02
$GLGSA,A,3,65,84,75,,,,,,,,,,1.17,0.82,0.83*15
$GNRMC,155311.000,A,4751.2878,N,03514.2509,E,2.18,211.20,251222,,,A*72
$GPGSA,A,3,25,24,19,32,12,29,06,11,,,,,1.17,0.82,0.83*02
$GLGSA,A,3,65,84,75,,,,,,,,,,1.17,0.82,0.83*15
$GNRMC,155312.000,A,4751.2869,N,03514.2504,E,2.23,207.83,251222,,,A*7A
$GPGSA,A,3,25,24,19,32,12,29,06,11,,,,,1.17,0.82,0.83*02
$GLGSA,A,3,65,84,75,,,,,,,,,,1.17,0.82,0.83*15
$GNRMC,155313.000,A,4751.2861,N,03514.2500,E,2.23,206.70,251222,,,A*7A
$GPGSA,A,3,25,24,19,32,12,29,06,11,,,,,1.17,0.82,0.83*02
$GLGSA,A,3,65,84,75,,,,,,,,,,1.17,0.82,0.83*15
$GNRMC,155314.000,A,4751.2854,N,03514.2500,E,2.20,201.16,251222,,,A*7F
$GPGSA,A,3,25,24,19,32,12,29,06,11,,,,,1.17,0.82,0.83*02
$GLGSA,A,3,65,84,75,,,,,,,,,,1.17,0.82,0.83*15
$GNRMC,155315.000,A,4751.2849,N,03514.2498,E,1.90,201.75,251222,,,A*7F
$GPGSA,A,3,25,24,19,32,12,29,06,11,,,,,1.17,0.82,0.83*02
$GLGSA,A,3,65,84,75,,,,,,,,,,1.17,0.82,0.83*15
$GNRMC,155316.000,A,4751.2842,N,03514.2492,E,1.92,205.01,251222,,,A*78
$GPGSA,A,3,25,24,19,32,12,29,06,11,,,,,1.17,0.82,0.83*02
$GLGSA,A,3,65,84,75,,,,,,,,,,1.17,0.82,0.83*15
$GNRMC,155317.000,A,4751.2835,N,03514.2485,E,1.93,205.49,251222,,,A*72
$GPGSA,A,3,25,24,19,32,12,29,06,11,,,,,1.17,0.82,0.83*02
$GLGSA,A,3,65,84,75,,,,,,,,,,1.17,0.82,0.83*15
$GNRMC,155318.000,A,4751.2828,N,03514.2478,E,2.01,209.49,251222,,,A*77
$GPGSA,A,3,25,24,19,32,12,29,06,11,,,,,1.17,0.82,0.83*02
$GLGSA,A,3,65,84,75,,,,,,,,,,1.17,0.82,0.83*15
$GNRMC,155319.000,A,4751.2821,N,03514.2470,E,2.06,211.33,251222,,,A*74
$GPGSA,A,3,25,24,19,32,12,29,06,11,,,,,1.17,0.82,0.83*02
$GLGSA,A,3,65,84,75,,,,,,,,,,1.17,0.82,0.83*15
$GNRMC,155320.000,A,4751.2813,N,03514.2465,E,2.11,207.20,251222,,,A*78
$GPGSA,A,3,25,24,19,32,12,29,06,11,,,,,1.17,0.82,0.83*02
$GLGSA,A,3,65,84,75,,,,,,,,,,1.17,0.82,0.83*15
$GNRMC,155321.000,A,4751.2806,N,03514.2457,E,2.10,210.50,251222,,,A*7C
$GPGSA,A,3,25,24,19,32,12,29,06,11,,,,,1.17,0.82,0.83*02
$GLGSA,A,3,65,84,75,,,,,,,,,,1.17,0.82,0.83*15
$GNRMC,155322.000,A,4751.2799,N,03514.2448,E,1.90,211.47,251222,,,A*74
$GPGSA,A,3,25,24,19,32,12,29,06,11,,,,,1.17,0.82,0.83*02
$GLGSA,A,3,65,84,75,,,,,,,,,,1.17,0.82,0.83*15
$GNRMC,155323.000,A,4751.2792,N,03514.2443,E,1.87,213.30,251222,,,A*71
$GPGSA,A,3,25,24,19,32,12,29,06,11,,,,,1.17,0.82,0.83*02
$GLGSA,A,3,65,84,75,,,,,,,,,,1.17,0.82,0.83*15
$GNRMC,155324.000,A,4751.2784,N,03514.2433,E,2.13,216.56,251222,,,A*7D
$GPGSA,A,3,25,24,19,32,12,29,06,11,,,,,1.17,0.82,0.83*02
$GLGSA,A,3,65,84,75,,,,,,,,,,1.17,0.82,0.83*15
$GNRMC,155325.000,A,4751.2778,N,03514.2427,E,2.14,215.32,251222,,,A*7C
$GPGSA,A,3,25,24,19,32,12,29,06,11,,,,,1.17,0.82,0.83*02
$GLGSA,A,3,65,84,75,,,,,,,,,,1.17,0.82,0.83*15
$GNRMC,155326.000,A,4751.2771,N,03514.2419,E,2.18,216.36,251222,,,A*70
$GPGSA,A,3,25,24,19,32,12,29,06,11,,,,,1.17,0.82,0.83*02
$GLGSA,A,3,65,84,75,,,,,,,,,,1.17,0.82,0.83*15
$GNRMC,155327.000,A,4751.2764,N,03514.2414,E,2.34,211.44,251222,,,A*74
$GPGSA,A,3,25,24,19,32,12,29,06,11,,,,,1.17,0.82,0.83*02
$GLGSA,A,3,65,84,75,,,,,,,,,,1.17,0.82,0.83*15
$GNRMC,155328.000,A,4751.2757,N,03514.2405,E,2.36,217.74,251222,,,A*7C
$GPGSA,A,3,25,24,19,32,12,29,06,11,,,,,1.17,0.82,0.83*02
$GLGSA,A,3,65,84,75,,,,,,,,,,1.17,0.82,0.83*15
$GNRMC,155329.000,A,4751.2750,N,03514.2397,E,2.35,218.06,251222,,,A*7F
$GPGSA,A,3,25,24,19,32,12,29,06,11,,,,,1.17,0.82,0.83*02
$GLGSA,A,3,65,84,75,,,,,,,,,,1.17,0.82,0.83*15
$GNRMC,155330.000,A,4751.2744,N,03514.2390,E,2.31,217.60,251222,,,A*7E
$GPGSA,A,3,25,24,19,32,12,29,06,11,,,,,1.17,0.82,0.83*02
$GLGSA,A,3,65,84,75,,,,,,,,,,1.17,0.82,0.83*15
$GNRMC,155331.000,A,4751.2736,N,03514.2381,E,2.32,218.32,251222,,,A*71
$GPGSA,A,3,25,24,19,32,12,29,06,11,,,,,1.17,0.82,0.83*02
$GLGSA,A,3,65,84,75,,,,,,,,,,1.17,0.82,0.83*15
$GNRMC,155332.000,A,4751.2726,N,03514.2368,E,2.39,220.31,251222,,,A*77
$GPGSA,A,3,25,24,19,32,12,29,06,11,,,,,1.17,0.82,0.83*02
$GLGSA,A,3,65,84,75,,,,,,,,,,1.17,0.82,0.83*15
$GNRMC,155333.000,A,4751.2719,N,03514.2362,E,2.33,224.39,251222,,,A*76
$GPGSA,A,3,25,24,19,32,12,29,06,11,,,,,1.17,0.82,0.83*02
$GLGSA,A,3,65,84,75,,,,,,,,,,1.17,0.82,0.83*15
$GNRMC,155334.000,A,4751.2710,N,03514.2352,E,2.30,224.43,251222,,,A*75
$GPGSA,A,3,25,24,19,32,12,29,06,11,,,,,1.17,0.82,0.83*02
$GLGSA,A,3,65,84,75,,,,,,,,,,1.17,0.82,0.83*15
$GNRMC,155335.000,A,4751.2701,N,03514.2339,E,2.27,226.36,251222,,,A*7F
$GPGSA,A,3,25,24,19,32,12,29,06,11,,,,,1.17,0.82,0.83*02
$GLGSA,A,3,65,84,75,,,,,,,,,,1.17,0.82,0.83*15
$GNRMC,155336.000,A,4751.2693,N,03514.2333,E,2.07,225.89,251222,,,A*79
$GPGSA,A,3,25,24,19,32,12,29,06,11,,,,,1.17,0.82,0.83*02
$GLGSA,A,3,65,84,75,,,,,,,,,,1.17,0.82,0.83*15
$GNRMC,155337.000,A,4751.2687,N,03514.2325,E,2.07,228.44,251222,,,A*76
$GPGSA,A,3,25,24,19,32,12,29,06,11,,,,,1.17,0.82,0.83*02
$GLGSA,A,3,65,84,75,,,,,,,,,,1.17,0.82,0.83*15
$GNRMC,155338.000,A,4751.2683,N,03514.2322,E,2.06,223.89,251222,,,A*71
$GPGSA,A,3,25,24,19,32,12,29,06,11,,,,,1.17,0.82,0.83*02
$GLGSA,A,3,65,84,75,,,,,,,,,,1.17,0.82,0.83*15
$GNRMC,155339.000,A,4751.2677,N,03514.2316,E,2.01,222.46,251222,,,A*79
$GPGSA,A,3,25,24,19,32,12,29,06,11,,,,,1.17,0.82,0.83*02
$GLGSA,A,3,65,84,75,,,,,,,,,,1.17,0.82,0.83*15
$GNRMC,155340.000,A,4751.2666,N,03514.2311,E,2.05,217.45,251222,,,A*71
$GPGSA,A,3,25,24,19,32,12,29,06,11,,,,,1.17,0.82,0.83*02
$GLGSA,A,3,65,84,75,,,,,,,,,,1.17,0.82,0.83*15
$GNRMC,155341.000,A,4751.2657,N,03514.2306,E,2.35,214.44,251222,,,A*75
$GPGSA,A,3,25,24,19,32,12,29,06,11,,,,,1.17,0.82,0.83*02
$GLGSA,A,3,65,84,75,,,,,,,,,,1.17,0.82,0.83*15
$GNRMC,155342.000,A,4751.2649,N,03514.2301,E,2.39,219.45,251222,,,A*7E
$GPGSA,A,3,25,24,19,32,12,29,06,11,,,,,1.17,0.82,0.83*02
$GLGSA,A,3,65,84,75,,,,,,,,,,1.17,0.82,0.83*15
$GNRMC,155343.000,A,4751.2642,N,03514.2294,E,2.82,213.02,251222,,,A*70
$GPGSA,A,3,25,24,19,32,12,29,06,11,,,,,1.17,0.82,0.83*02
$GLGSA,A,3,65,84,75,,,,,,,,,,1.17,0.82,0.83*15
$GNRMC,155344.000,A,4751.2634,N,03514.2287,E,2.55,210.08,251222,,,A*77
$GPGSA,A,3,25,24,19,32,12,29,06,11,,,,,1.17,0.82,0.83*02
$GLGSA,A,3,65,84,75,,,,,,,,,,1.17,0.82,0.83*15
$GNRMC,155345.000,A,4751.2624,N,03514.2278,E,2.57,213.80,251222,,,A*76
$GPGSA,A,3,25,24,19,32,12,29,06,11,,,,,1.17,0.82,0.83*02
$GLGSA,A,3,65,84,75,,,,,,,,,,1.17,0.82,0.83*15
$GNRMC,155346.000,A,4751.2615,N,03514.2270,E,2.16,214.94,251222,,,A*78
$GPGSA,A,3,25,24,19,32,12,29,06,11,,,,,1.17,0.82,0.83*02
$GLGSA,A,3,65,84,75,,,,,,,,,,1.17,0.82,0.83*15
$GNRMC,155347.000,A,4751.2607,N,03514.2264,E,1.83,212.77,251222,,,A*7B
$GPGSA,A,3,25,24,19,32,12,29,06,11,,,,,1.17,0.82,0.83*02
$GLGSA,A,3,65,84,75,,,,,,,,,,1.17,0.82,0.83*15
$GNRMC,155348.000,A,4751.2602,N,03514.2259,E,1.60,228.77,251222,,,A*7B
$GPGSA,A,3,25,24,19,32,12,29,06,11,,,,,1.17,0.82,0.83*02
$GLGSA,A,3,65,84,75,,,,,,,,,,1.17,0.82,0.83*15
$GNRMC,155349.000,A,4751.2597,N,03514.2254,E,1.76,216.82,251222,,,A*78
$GPGSA,A,3,25,24,19,32,12,29,06,11,,,,,1.17,0.82,0.83*02
$GLGSA,A,3,65,84,75,,,,,,,,,,1.17,0.82,0.83*15
$GNRMC,155350.000,A,4751.2589,N,03514.2251,E,2.17,198.84,251222,,,A*7D
$GPGSA,A,3,25,24,19,32,12,29,06,11,,,,,1.17,0.82,0.83*02
$GLGSA,A,3,65,84,75,,,,,,,,,,1.17,0.82,0.83*15
$GNRMC,155351.000,A,4751.2581,N,03514.2248,E,2.34,202.63,251222,,,A*74
$GPGSA,A,3,25,24,19,32,12,29,06,11,,,,,1.17,0.82,0.83*02
$GLGSA,A,3,65,84,75,,,,,,,,,,1.17,0.82,0.83*15
$GNRMC,155352.000,A,4751.2574,N,03514.2243,E,2.28,204.10,251222,,,A*79
$GPGSA,A,3,25,24,19,32,12,29,06,11,,,,,1.17,0.82,0.83*02
$GLGSA,A,3,65,84,75,,,,,,,,,,1.17,0.82,0.83*15
$GNRMC,155353.000,A,4751.2566,N,03514.2239,E,2.03,216.03,251222,,,A*7E
$GPGSA,A,3,25,24,19,32,12,29,06,11,,,,,1.17,0.82,0.83*02
$GLGSA,A,3,65,84,75,,,,,,,,,,1.17,0.82,0.83*15
$GNRMC,155354.000,A,4751.2559,N,03514.2234,E,2.00,210.66,251222,,,A*7E
$GPGSA,A,3,25,24,19,32,12,29,06,11,,,,,1.17,0.82,0.83*02
$GLGSA,A,3,65,84,75,,,,,,,,,,1.17,0.82,0.83*15
$GNRMC,155355.000,A,4751.2552,N,03514.2228,E,2.25,215.00,251222,,,A*7B
$GPGSA,A,3,25,24,19,32,12,29,06,11,,,,,1.17,0.82,0.83*02
$GLGSA,A,3,65,84,75,,,,,,,,,,1.17,0.82,0.83*15
$GNRMC,155356.000,A,4751.2546,N,03514.2220,E,2.21,220.77,251222,,,A*77
$GPGSA,A,3,25,24,19,32,12,29,06,11,,,,,1.17,0.82,0.83*02
$GLGSA,A,3,65,84,75,,,,,,,,,,1.17,0.82,0.83*15
$GNRMC,155357.000,A,4751.2540,N,03514.2213,E,1.89,210.02,251222,,,A*70
$GPGSA,A,3,25,24,19,32,12,29,06,11,,,,,1.17,0.82,0.83*02
$GLGSA,A,3,65,84,75,,,,,,,,,,1.17,0.82,0.83*15
$GNRMC,155358.000,A,4751.2533,N,03514.2207,E,1.93,215.66,251222,,,A*72
$GPGSA,A,3,25,24,19,32,12,29,06,11,,,,,1.17,0.82,0.83*02
$GLGSA,A,3,65,84,75,,,,,,,,,,1.17,0.82,0.83*15
$GNRMC,155359.000,A,4751.2527,N,03514.2201,E,1.94,217.68,251222,,,A*7B
$GPGSA,A,3,25,24,19,32,12,29,06,11,,,,,1.17,0.82,0.83*02
$GLGSA,A,3,65,84,75,,,,,,,,,,1.17,0.82,0.83*15
$GNRMC,155400.000,A,4751.2521,N,03514.2195,E,1.93,217.96,251222,,,A*7E
$GPGSA,A,3,25,24,19,32,12,29,06,11,,,,,1.17,0.82,0.83*02
$GLGSA,A,3,65,84,75,,,,,,,,,,1.17,0.82,0.83*15
$GNRMC,155401.000,A,4751.2515,N,03514.2190,E,1.91,216.84,251222,,,A*7D
$GPGSA,A,3,25,24,19,32,12,29,06,11,,,,,1.17,0.82,0.83*02
$GLGSA,A,3,65,84,75,,,,,,,,,,1.17,0.82,0.83*15
$GNRMC,155402.000,A,4751.2508,N,03514.2186,E,1.87,222.74,251222,,,A*7A
$GPGSA,A,3,25,24,19,32,12,29,06,11,,,,,1.17,0.82,0.83*02
$GLGSA,A,3,65,84,75,,,,,,,,,,1.17,0.82,0.83*15
$GNRMC,155403.000,A,4751.2499,N,03514.2182,E,2.17,215.87,251222,,,A*74
$GPGSA,A,3,25,24,19,32,12,29,06,11,,,,,1.17,0.82,0.83*02
$GLGSA,A,3,65,84,75,,,,,,,,,,1.17,0.82,0.83*15
$GNRMC,155404.000,A,4751.2491,N,03514.2176,E,1.98,217.77,251222,,,A*79
$GPGSA,A,3,25,24,19,32,12,29,06,11,,,,,1.17,0.82,0.83*02
$GLGSA,A,3,65,84,75,,,,,,,,,,1.17,0.82,0.83*15
$GNRMC,155405.000,A,4751.2485,N,03514.2173,E,1.51,207.28,251222,,,A*76
$GPGSA,A,3,25,24,19,32,12,29,06,11,,,,,1.17,0.82,0.83*02
$GLGSA,A,3,65,84,75,,,,,,,,,,1.17,0.82,0.83*15
$GNRMC,155406.000,A,4751.2476,N,03514.2169,E,2.10,207.16,251222,,,A*79
$GPGSA,A,3,25,24,19,32,12,29,06,11,,,,,1.17,0.82,0.83*02
$GLGSA,A,3,65,84,75,,,,,,,,,,1.17,0.82,0.83*15
$GNRMC,155407.000,A,4751.2468,N,03514.2164,E,2.03,214.20,251222,,,A*7F
$GPGSA,A,3,25,24,19,32,12,29,06,11,,,,,1.17,0.82,0.83*02
$GLGSA,A,3,65,84,75,,,,,,,,,,1.17,0.82,0.83*15
$GNRMC,155408.000,A,4751.2462,N,03514.2157,E,1.87,224.95,251222,,,A*78
$GPGSA,A,3,25,24,19,32,12,29,06,11,,,,,1.17,0.82,0.83*02
$GLGSA,A,3,65,84,75,,,,,,,,,,1.17,0.82,0.83*15
$GNRMC,155409.000,A,4751.2456,N,03514.2152,E,1.81,204.06,251222,,,A*75
$GPGSA,A,3,25,24,19,32,12,29,06,11,,,,,1.17,0.82,0.83*02
$GLGSA,A,3,65,84,75,,,,,,,,,,1.17,0.82,0.83*15
$GNRMC,155410.000,A,4751.2448,N,03514.2148,E,1.82,204.20,251222,,,A*7E
$GPGSA,A,3,25,24,19,32,12,29,06,11,,,,,1.17,0.82,0.83*02
$GLGSA,A,3,65,84,75,,,,,,,,,,1.17,0.82,0.83*15
$GNRMC,155411.000,A,4751.2440,N,03514.2144,E,1.88,210.00,251222,,,A*76
$GPGSA,A,3,25,24,19,32,12,29,06,11,,,,,1.17,0.82,0.83*02
$GLGSA,A,3,65,84,75,,,,,,,,,,1.17,0.82,0.83*15
$GNRMC,155412.000,A,4751.2434,N,03514.2139,E,1.91,205.44,251222,,,A*70
$GPGSA,A,3,25,24,19,32,12,29,06,11,,,,,1.17,0.82,0.83*02
$GLGSA,A,3,65,84,75,,,,,,,,,,1.17,0.82,0.83*15
$GNRMC,155413.000,A,4751.2428,N,03514.2135,E,2.05,201.00,251222,,,A*7A
$GPGSA,A,3,25,24,19,32,12,29,06,11,,,,,1.17,0.82,0.83*02
$GLGSA,A,3,65,84,75,,,,,,,,,,1.17,0.82,0.83*15
$GNRMC,155414.000,A,4751.2421,N,03514.2131,E,2.08,205.56,251222,,,A*7A
$GPGSA,A,3,25,24,19,32,12,29,06,11,,,,,1.17,0.82,0.83*02
$GLGSA,A,3,65,84,75,,,,,,,,,,1.17,0.82,0.83*15
$GNRMC,155415.000,A,4751.2413,N,03514.2126,E,2.31,206.65,251222,,,A*75
$GPGSA,A,3,25,24,19,32,12,29,06,11,,,,,1.17,0.82,0.83*02
$GLGSA,A,3,65,84,75,,,,,,,,,,1.17,0.82,0.83*15
$GNRMC,155416.000,A,4751.2406,N,03514.2122,E,2.29,205.85,251222,,,A*72
$GPGSA,A,3,25,24,19,32,12,29,06,11,,,,,1.17,0.82,0.83*02
$GLGSA,A,3,65,84,75,,,,,,,,,,1.17,0.82,0.83*15
$GNRMC,155417.000,A,4751.2400,N,03514.2118,E,1.52,201.70,251222,,,A*7D
$GPGSA,A,3,25,24,19,32,12,29,06,11,,,,,1.17,0.82,0.83*02
$GLGSA,A,3,65,84,75,,,,,,,,,,1.17,0.82,0.83*15
$GNRMC,155418.000,A,4751.2394,N,03514.2112,E,1.69,214.22,251222,,,A*79
$GPGSA,A,3,25,24,19,32,12,29,06,11,,,,,1.17,0.82,0.83*02
$GLGSA,A,3,65,84,75,,,,,,,,,,1.17,0.82,0.83*15
$GNRMC,155419.000,A,4751.2388,N,03514.2109,E,1.64,201.39,251222,,,A*7C
$GPGSA,A,3,25,24,19,32,12,29,06,11,,,,,1.17,0.82,0.83*02
$GLGSA,A,3,65,84,75,,,,,,,,,,1.17,0.82,0.83*15
$GNRMC,155420.000,A,4751.2381,N,03514.2105,E,1.95,201.64,251222,,,A*75
$GPGSA,A,3,25,24,19,32,12,29,06,11,,,,,1.17,0.82,0.83*02
$GLGSA,A,3,65,84,75,,,,,,,,,,1.17,0.82,0.83*15
$GNRMC,155421.000,A,4751.2374,N,03514.2103,E,1.97,177.72,251222,,,A*7F
$GPGSA,A,3,25,24,19,32,12,29,06,11,,,,,1.17,0.82,0.83*02
$GLGSA,A,3,65,84,75,,,,,,,,,,1.17,0.82,0.83*15
$GNRMC,155422.000,A,4751.2368,N,03514.2099,E,1.63,205.22,251222,,,A*7B
$GPGSA,A,3,25,24,19,32,12,29,06,11,,,,,1.17,0.82,0.83*02
$GLGSA,A,3,65,84,75,,,,,,,,,,1.17,0.82,0.83*15
$GNRMC,155423.000,A,4751.2360,N,03514.2093,E,2.14,214.87,251222,,,A*74
$GPGSA,A,3,25,24,19,32,12,29,06,11,,,,,1.17,0.82,0.83*02
$GLGSA,A,3,65,84,75,,,,,,,,,,1.17,0.82,0.83*15
$GNRMC,155424.000,A,4751.2353,N,03514.2086,E,2.19,210.15,251222,,,A*75
$GPGSA,A,3,25,24,19,32,12,29,06,11,,,,,1.17,0.82,0.83*02
$GLGSA,A,3,65,84,75,,,,,,,,,,1.17,0.82,0.83*15
$GNRMC,155425.000,A,4751.2347,N,03514.2080,E,2.35,207.76,251222,,,A*7A
$GPGSA,A,3,25,24,19,32,12,29,06,11,,,,,1.17,0.82,0.83*02
$GLGSA,A,3,65,84,75,,,,,,,,,,1.17,0.82,0.83*15
$GNRMC,155426.000,A,4751.2340,N,03514.2077,E,2.13,184.28,251222,,,A*71
$GPGSA,A,3,25,24,19,32,12,29,06,11,,,,,1.17,0.82,0.83*02
$GLGSA,A,3,65,84,75,,,,,,,,,,1.17,0.82,0.83*15
$GNRMC,155427.000,A,4751.2333,N,03514.2074,E,1.65,206.54,251222,,,A*77
$GPGSA,A,3,25,24,19,32,12,29,06,11,,,,,1.17,0.83,0.83*03
$GLGSA,A,3,65,84,75,,,,,,,,,,1.17,0.83,0.83*14
$GNRMC,155428.000,A,4751.2323,N,03514.2070,E,1.71,202.75,251222,,,A*7F
$GPGSA,A,3,25,24,19,32,12,29,06,11,,,,,1.17,0.82,0.83*02
$GLGSA,A,3,65,84,75,,,,,,,,,,1.17,0.82,0.83*15
$GNRMC,155429.000,A,4751.2315,N,03514.2067,E,1.78,191.96,251222,,,A*70
$GPGSA,A,3,25,24,19,32,12,29,06,11,,,,,1.17,0.82,0.83*02
$GLGSA,A,3,65,84,75,,,,,,,,,,1.17,0.82,0.83*15
$GNRMC,155430.000,A,4751.2307,N,03514.2062,E,2.52,205.80,251222,,,A*7C
$GPGSA,A,3,25,24,19,32,12,29,06,11,,,,,1.17,0.82,0.83*02
$GLGSA,A,3,65,84,75,,,,,,,,,,1.17,0.82,0.83*15
$GNRMC,155431.000,A,4751.2301,N,03514.2057,E,2.59,201.24,251222,,,A*7C
$GPGSA,A,3,25,24,19,32,12,29,06,11,,,,,1.17,0.82,0.83*02
$GLGSA,A,3,65,84,75,,,,,,,,,,1.17,0.82,0.83*15
$GNRMC,155432.000,A,4751.2294,N,03514.2053,E,2.29,202.70,251222,,,A*73
$GPGSA,A,3,25,24,19,32,12,29,06,11,,,,,1.17,0.82,0.83*02
$GLGSA,A,3,65,84,75,,,,,,,,,,1.17,0.82,0.83*15
$GNRMC,155433.000,A,4751.2288,N,03514.2048,E,1.76,202.68,251222,,,A*75
$GPGSA,A,3,25,24,19,32,12,29,06,11,,,,,1.17,0.82,0.83*02
$GLGSA,A,3,65,84,75,,,,,,,,,,1.17,0.82,0.83*15
$GNRMC,155434.000,A,4751.2283,N,03514.2044,E,1.73,202.82,251222,,,A*74
$GPGSA,A,3,25,24,19,32,12,29,06,11,,,,,1.17,0.82,0.83*02
$GLGSA,A,3,65,84,75,,,,,,,,,,1.17,0.82,0.83*15
$GNRMC,155435.000,A,4751.2277,N,03514.2037,E,1.96,212.22,251222,,,A*7A
$GPGSA,A,3,25,24,19,32,12,29,06,11,,,,,1.17,0.82,0.83*02
$GLGSA,A,3,65,84,75,,,,,,,,,,1.17,0.82,0.83*15
$GNRMC,155436.000,A,4751.2272,N,03514.2031,E,2.02,224.91,251222,,,A*79
$GPGSA,A,3,25,24,19,32,12,29,06,11,,,,,1.17,0.82,0.83*02
$GLGSA,A,3,65,84,75,,,,,,,,,,1.17,0.82,0.83*15
$GNRMC,155437.000,A,4751.2266,N,03514.2025,E,2.19,223.47,251222,,,A*7E
$GPGSA,A,3,25,24,19,32,12,29,06,11,,,,,1.17,0.82,0.83*02
$GLGSA,A,3,65,84,75,,,,,,,,,,1.17,0.82,0.83*15
$GNRMC,155438.000,A,4751.2260,N,03514.2021,E,1.52,207.47,251222,,,A*79
$GPGSA,A,3,25,24,19,32,12,29,06,11,,,,,1.17,0.83,0.83*03
$GLGSA,A,3,65,84,75,,,,,,,,,,1.17,0.83,0.83*14
